,안심 주소,위도,경도
0,서울특별시 중랑구 중화동 중랑역로15길 22 ,37.5977020263672,127.074798583984
1,서울특별시 중랑구 망우동 망우로58길 55 월드아파트,37.5959804873352,127.09498704965598
2,서울특별시 중랑구 상봉동 동일로120길 79 ,37.5976524353027,127.084449768066
3,서울특별시 중랑구 중화동 중랑역로 16 ,37.596809387207,127.076377868652
4,서울특별시 중랑구 신내동 봉화산로 238 ,37.6074104309082,127.099586486816
5,서울특별시 중랑구 상봉동 봉화산로48길 62 건영아파트,37.6034902734445,127.093957453865
6,서울특별시 중랑구 상봉동 망우로55길 21 ,37.59908367771371,127.093685863505
7,서울특별시 중랑구 망우동 망우로70길 11 ,37.5986213684082,127.102088928223
8,서울특별시 중랑구 망우동 망우로66길 13 ,37.59848265553371,127.099636893383
9,서울특별시 중랑구 망우동 망우로74가길 3 ,37.598903656005895,127.104507446289
10,서울특별시 중랑구 면목동 용마산로 248 ,37.5752591791224,127.088028207475
11,서울특별시 중랑구 망우동 용마산로 443 ,37.5913005985154,127.097089674895
12,서울특별시 중랑구 중화동 중랑천로 158 더갤러리,37.5985069274902,127.073379516602
13,서울특별시 중랑구 중화동 중랑역로3길 44 ,37.595710754394496,127.073173522949
14,서울특별시 중랑구 망우동 망우로76길 37 ,37.5982771306327,127.106059860529
15,서울특별시 중랑구 면목동 면목로84가길 4 ,37.5919418334961,127.088676452637
16,서울특별시 중랑구 상봉동 봉화산로 106 ,37.602661785018,127.086534352895
17,서울특별시 중랑구 망우동 봉우재로58길 38 혜원쉐르빌,37.5921859741211,127.095108032227
18,서울특별시 광진구 중곡동 답십리로 374 ,37.5715484619141,127.08226776123
19,서울특별시 광진구 중곡동 답십리로 374 ,37.57151297624279,127.082711720729
20,서울특별시 중랑구 중화동 동일로124길 76 청호빌,37.6002616882324,127.082916259766
21,서울특별시 중랑구 망우동 망우로71길 36 ,37.6010284423828,127.103355407715
22,서울특별시 중랑구 망우동 용마공원로 7 ,37.5953525506532,127.10160294015
23,서울특별시 중랑구 면목동 면목로 261 ,37.5768021173664,127.085689060496
24,서울특별시 중랑구 중화동 동일로143길 19 제일프라자,37.6057891845703,127.077743530273
25,서울특별시 중랑구 망우동 양원역로 25 ,37.603298187255895,127.107246398926
26,서울특별시 중랑구 면목동 면목로38가길 42 ,37.5796127319336,127.089164733887
27,서울특별시 중랑구 중화동 중랑역로 123 ,37.6040458679199,127.076477050781
28,서울특별시 중랑구 면목동 겸재로9길 36 ,37.588932378561,127.078213000606
29,서울특별시 중랑구 망우동 용마산로122길 12 ,37.6026104294804,127.100880037071
30,서울특별시 중랑구 면목동 면목로49길 40 ,37.583282470703104,127.086906433105
31,신내2동 531 (중화초등학교앞 고정),37.6035575866699,127.094741821289
32,서울특별시 중랑구 중화동 봉화산로 3 ,37.602958679199205,127.074394226074
33,서울특별시 중랑구 중화동 중랑천로 108 ,37.595817023578,127.072104351855
34,서울특별시 중랑구 묵동 동일로 869 ,37.608879089355504,127.077156066895
35,서울특별시 중랑구 면목동 용마산로 408 gs25시,37.587870004802205,127.096187565156
36,서울특별시 중랑구 신내동 용마산로129나길 101 라이프미성아파트,37.6032371520996,127.0986328125
37,서울특별시 중랑구 상봉동 면목로 465 ,37.5937004089355,127.08536529541
38,서울특별시 중랑구 면목동 겸재로 220 ,37.5886889906496,127.092261561751
39,서울특별시 중랑구 상봉동 신내로7다길 17 ,37.601749420166,127.093406677246
40,서울특별시 중랑구 중화동 봉화산로30길 5 ,37.6010782484862,127.085312085711
41,서울특별시 중랑구 망우동 양원역로 7 ,37.6014459094015,127.107598131273
42,서울특별시 중랑구 면목동 동일로107길 42 ,37.5916992865775,127.077923824379
43,서울특별시 중랑구 면목동 면목로28길 5 ,37.57582473754879,127.086166381836
44,서울특별시 중랑구 상봉동 신내로7나길 19 ,37.6011119762352,127.095295678726
45,서울특별시 중랑구 면목동 겸재로54길 79 을해파크빌,37.5854538178164,127.09141856693
46,서울특별시 중랑구 면목동 면목로44길 45 금성주택,37.5818063564871,127.091006915114
47,서울특별시 중랑구 망우동 봉우재로 220 ,37.5943089455533,127.098721327577
48,서울특별시 중랑구 상봉동 봉화산로44길 16 풍산쉐르빌,37.602020263671896,127.088043212891
49,서울특별시 중랑구 중화동 봉화산로 77 범용카센터,37.60137858616879,127.083306296313
50,서울특별시 중랑구 묵동 동일로149길 41 ,37.606361709208,127.07550018527
51,서울특별시 중랑구 신내동 신내로15길 30 동일교회,37.610912322998,127.094146728516
52,서울특별시 중랑구 상봉동 신내로7가길 54 ,37.6023254313568,127.092067532736
53,서울특별시 광진구 중곡동 답십리로 374 ,37.571932679055706,127.082935800391
54,서울특별시 중랑구 상봉동 봉화산로45길 67 ,37.6065728954273,127.091904581633
55,서울특별시 중랑구 망우동 망우로 429 ,37.6004600524902,127.09977722168
56,서울특별시 중랑구 망우동 봉우재로 220 ,37.5947119321468,127.098155652372
57,서울특별시 중랑구 상봉동 상봉중앙로 52 ,37.6016693115234,127.088409423828
58,서울특별시 중랑구 면목동 용마산로 399 신일유치원,37.587158203125,127.095153808594
59,서울특별시 중랑구 망우동 용마산로100길 33 자연을담은집,37.5916519165039,127.100219726563
60,서울특별시 중랑구 중화동 중랑역로 16 ,37.5967438201388,127.076385338239
61,서울특별시 중랑구 면목동 용마산로94가길 3 ,37.588172912597706,127.09789276123
62,서울특별시 중랑구 상봉동 봉화산로 109 ,37.6034202575684,127.086128234863
63,서울특별시 중랑구 면목동 동일로101길 78 ,37.5888977050781,127.075202941895
64,서울특별시 중랑구 면목동 겸재로 73 요리여행도서당,37.5853271484375,127.076736450195
65,서울특별시 중랑구 면목동 면목로35길 33 ,37.578100176239296,127.083585064407
66,서울특별시 중랑구 면목동 겸재로40길 71 ,37.584266662597706,127.087783813477
67,서울특별시 중랑구 면목동 사가정로 358 ,37.5800614228107,127.084560391218
68,서울특별시 중랑구 중화동 중랑역로13길 18 ,37.5968284606934,127.073028564453
69,서울특별시 중랑구 중화동 동일로139길 39 ,37.6024942761363,127.076937815415
70,서울특별시 중랑구 면목동 봉우재로 172 ,37.593811259854895,127.0927862725
71,서울특별시 중랑구 신내동 용마산로125길 62 ,37.60214267083301,127.098920823953
72,서울특별시 중랑구 면목동 답십리로75길 36 연세피아노,37.5732510402709,127.081243060634
73,서울특별시 중랑구 면목동 사가정로 415 ,37.58095467715221,127.091460284446
74,서울특별시 중랑구 망우동 용마산로100길 82 ,37.589414364678895,127.102513729214
75,묵1동 10-6(보조1),37.6178705555046,127.087049650997
76,서울특별시 중랑구 면목동 중랑천로 64 ,37.5918307551029,127.073900647663
77,서울특별시 중랑구 면목동 동일로 689 (주)근영,37.5927006406219,127.079884710105
78,서울특별시 중랑구 망우동 봉우재로71길 53 ,37.5969734191895,127.096282958984
79,서울특별시 중랑구 묵동 신내로23길 57 원묵중학교,37.618249499026,127.08459890445
80,서울특별시 중랑구 면목동 겸재로 211 기아자동차,37.5893783569336,127.091598510742
81,서울특별시 중랑구 중화동 동일로123길 99 세종에코그린,37.599474909379104,127.074729898682
82,서울특별시 중랑구 상봉동 상봉중앙로8나길 33 ,37.601100921630895,127.091117858887
83,서울특별시 중랑구 상봉동 동일로120길 121 ,37.5978240966797,127.086761474609
84,서울특별시 중랑구 중화동 동일로129길 56 함경상회,37.6007812486129,127.07616618004
85,서울특별시 중랑구 면목동 겸재로 193 ,37.5888937907799,127.089398691546
86,서울특별시 중랑구 신내동 신내로15길 143 ,37.6142349243164,127.089179992676
87,서울특별시 중랑구 상봉동 망우로55길 69 상봉연립,37.6009350307199,127.095183855423
88,서울특별시 중랑구 묵동 중랑역로 185 ,37.610958730069605,127.075061051785
89,면목7동 1084-9(고정1),37.58037674350071,127.093240978762
90,서울특별시 중랑구 상봉동 망우로 216 ,37.5937375418344,127.077888476012
91,서울특별시 중랑구 망우동 양원역로 7 ,37.6011254637499,127.10701179628
92,서울특별시 중랑구 신내동 신내로15길 110 봉화초등학교,37.6134796142578,127.09122467041
93,서울특별시 중랑구 상봉동 상봉중앙로5가길 14 ,37.6018316165666,127.086119452509
94,서울특별시 중랑구 신내동 신내역로1길 142 우디안3단지,37.6170349121094,127.110504150391
95,서울특별시 중랑구 상봉동 상봉중앙로8나길 33 ,37.6018742580959,127.09147429781
96,서울특별시 중랑구 묵동 공릉로 50 ,37.61572265625,127.078948974609
97,망우본동 산 56 (망우로 중랑캠핑숲 입구),37.601218651035,127.113384083419
98,서울특별시 중랑구 신내동 신내로 8 ,37.6002186675996,127.097793849246
99,서울특별시 중랑구 중화동 망우로 165 ,37.5937996229748,127.071458638278
100,서울특별시 중랑구 중화동 중랑천로 123 ,37.596813201904205,127.071022033691
101,서울특별시 중랑구 망우동 망우로70길 59 ,37.5962386911416,127.10338295778
102,서울특별시 중랑구 망우동 망우로 476 ,37.600804881634495,127.105986857014
103,서울특별시 중랑구 망우동 망우로 467 ,37.6004223485517,127.104818728348
104,신내1동 817-4 (신내3단지 능말공원 #2),37.615909576416,127.107864379883
105,서울특별시 중랑구 면목동 면목로27가길 17 ,37.5765953063965,127.083877563477
106,서울특별시 중랑구 면목동 사가정로 409 대도빌딩,37.5800683592726,127.090840815415
107,서울특별시 중랑구 면목동 용마산로 248 ,37.5753363802,127.0884181338
108,서울특별시 중랑구 망우동 망우로70길 55 ,37.5979372478872,127.103456086498
109,서울특별시 중랑구 면목동 면목로 437 ,37.5919494116128,127.086312099297
110,서울특별시 중랑구 망우동 망우로 494 ,37.5999706412075,127.106995641828
111,서울특별시 중랑구 묵동 동일로 893 ,37.610757562682096,127.07755041349
112,서울특별시 중랑구 중화동 동일로130길 77 ,37.6004524230957,127.084594726563
113,신내2동 665 (신현초교정문),37.60595881524579,127.094157334105
114,서울특별시 중랑구 묵동 동일로148나길 10 ,37.6089210510254,127.081565856934
115,서울특별시 중랑구 면목동 겸재로 193 면목다가구주택,37.5895077359884,127.089618805213
116,서울특별시 중랑구 면목동 용마산로94길 64 ,37.5874008574445,127.099695877993
117,서울특별시 중랑구 망우동 봉우재로 218 24시슈퍼,37.59446334838871,127.097152709961
118,서울특별시 중랑구 면목동 용마산로 409 아이비고시원,37.5887970912083,127.095630893802
119,서울특별시 중랑구 상봉동 동일로116길 3 ,37.5944404602051,127.081062316895
120,서울특별시 중랑구 신내동 용마산로139길 61 ,37.6155388782756,127.097783374736
121,서울특별시 중랑구 상봉동 상봉중앙로 44 드림하우스,37.6007930001181,127.088365308521
122,서울특별시 중랑구 묵동 공릉로14길 37 ,37.6182327270508,127.081787109375
123,서울특별시 중랑구 상봉동 상봉로 117 상봉시외버스터미널,37.5964304594958,127.092859428322
124,서울특별시 중랑구 망우동 봉우재로57길 58 ,37.5972938537598,127.095565795898
125,서울특별시 중랑구 면목동 용마산로94길 64 ,37.5871272547332,127.100327438118
126,서울특별시 중랑구 면목동 사가정로71길 11 용마2차한신아파트,37.58082962036129,127.094955444336
127,서울특별시 중랑구 상봉동 봉화산로 146 엘지아파트,37.6045799255371,127.090034484863
128,서울특별시 중랑구 중화동 동일로124길 76 청호빌,37.6006770859667,127.082548057306
129,서울특별시 중랑구 면목동 겸재로36길 23 ,37.5866661071777,127.086059570313
130,서울특별시 중랑구 망우동 망우로 458 샛별유치원,37.5995875375534,127.102462934455
131,서울특별시 중랑구 면목동 겸재로18길 33 ,37.5858620623574,127.081600730811
132,서울특별시 중랑구 면목동 면목로 325 ,37.5817070007324,127.088310241699
133,서울특별시 중랑구 망우동 망우로70길 11 ,37.598636293064295,127.102733022601
134,서울특별시 중랑구 상봉동 동일로120길 138 ,37.598370848477394,127.087865385905
135,서울특별시 중랑구 면목동 용마산로86길 9 ,37.5862655639648,127.096221923828
136,서울특별시 중랑구 망우동 망우로67가길 27 ,37.602165222168,127.103302001953
137,신내1동 437 (벽산아파트입구옆건너편 고정),37.602428436279205,127.099578857422
138,서울특별시 중랑구 상봉동 동일로126길 107 ,37.5992202758789,127.086219787598
139,서울특별시 중랑구 면목동 겸재로3길 28 ,37.58790969848629,127.077789306641
140,서울특별시 중랑구 상봉동 송림길 3 ,37.59983444213871,127.095924377441
141,서울특별시 중랑구 중화동 동일로124길 64 ,37.5990257263184,127.083702087402
142,서울특별시 중랑구 상봉동 동일로112길 54 ,37.5933265686035,127.084541320801
143,서울특별시 중랑구 상봉동 상봉중앙로1다길 41 ,37.599921057109,127.08947011530898
144,서울특별시 중랑구 중화동 중랑천로 174 ,37.6000598675428,127.073769077983
145,서울특별시 중랑구 망우동 망우로76길 11 ,37.5992035559526,127.105535421216
146,서울특별시 중랑구 상봉동 송림길 3 ,37.5999336242676,127.095230102539
147,서울특별시 중랑구 신내동 신내로21길 104 ,37.613822937011705,127.088600158691
148,서울특별시 중랑구 면목동 겸재로 156 ,37.5877952575684,127.085327148438
149,서울특별시 중랑구 신내동 봉화산로52길 48 신내제일교회,37.6050262451172,127.096687316895
150,서울특별시 중랑구 면목동 동일로 606 ,37.5840492248535,127.080657958984
151,서울특별시 중랑구 망우동 망우로 476 ,37.60048952647061,127.105931447981
152,서울특별시 중랑구 상봉동 상봉중앙로1다길 41 ,37.599505111234606,127.089689630252
153,서울특별시 중랑구 신내동 봉화산로56길 64 ,37.6058569225537,127.097930282714
154,서울특별시 중랑구 상봉동 상봉중앙로6길 30 ,37.6019897460938,127.089019775391
155,서울특별시 중랑구 망우동 망우로 458 샛별유치원,37.5991486611691,127.102665010456
156,서울특별시 중랑구 면목동 겸재로30가길 20 현대아트빌,37.5858764648438,127.085945129395
157,서울특별시 중랑구 면목동 답십리로77가길 6 ,37.5739496765853,127.082994720827
158,서울특별시 중랑구 망우동 망우로77길 34 ,37.60205078125,127.105972290039
159,서울특별시 중랑구 면목동 답십리로81길 95 ,37.57517045782971,127.084635070776
160,서울특별시 중랑구 면목동 면목로51길 5 경수하이빌,37.5835952758789,127.087310791016
161,서울특별시 중랑구 중화동 동일로124길 29 ,37.5987489451244,127.082678616997
162,서울특별시 중랑구 상봉동 망우로 312 ,37.596366882324205,127.087982177734
163,서울특별시 중랑구 중화동 동일로136가길 7 ,37.6030769348145,127.080879211426
164,서울특별시 중랑구 신내동 용마산로125나길 15 ,37.6037922262464,127.099333594178
165,서울특별시 중랑구 면목동 면목로38가길 42 ,37.579307200167,127.089591423471
166,서울특별시 중랑구 신내동 봉화산로56길 99 ,37.604119912152704,127.098918233549
167,서울특별시 중랑구 상봉동 상봉중앙로1다길 47 ,37.5999182059637,127.090775192185
168,서울특별시 중랑구 면목동 용마산로 332 ,37.5819014931245,127.094400510069
169,신내2동 650 (은하수공원),37.615727150986,127.091335268116
170,서울특별시 중랑구 면목동 동일로 683 수도관합기도,37.591359709214295,127.079965172798
171,서울특별시 중랑구 면목동 면목로 249 ,37.5758476611515,127.085301465931
172,서울특별시 중랑구 중화동 봉화산로 9 ,37.6024398803711,127.0751953125
173,서울특별시 중랑구 면목동 용마산로72길 24 신안하우스,37.5835952758789,127.095207214355
174,서울특별시 중랑구 면목동 면목로 391 서울사부동산,37.5861320495605,127.087615966797
175,서울특별시 중랑구 상봉동 망우로 266 ,37.5950111442118,127.082897433191
176,서울특별시 중랑구 중화동 망우로 239 가나안교회,37.595810455004,127.079429118409
177,서울특별시 중랑구 면목동 용마산로 271 면목금호어울림아파트,37.577033996582,127.089836120605
178,서울특별시 중랑구 상봉동 상봉중앙로1다길 67 ,37.6004524230957,127.091247558594
179,서울특별시 중랑구 망우동 망우로67가길 12 ,37.6025058188106,127.102688041291
180,서울특별시 중랑구 면목동 면목로45길 64 ,37.5824658196253,127.084274548975
181,서울특별시 중랑구 망우동 양원역로 18 중랑숲금호어울림,37.602664620972206,127.108432874257
182,서울특별시 중랑구 망우동 용마산로100길 82 ,37.58904367174621,127.102483451658
183,면목7동 산 50-16(고정1),37.57928116307271,127.097823231386
184,면목4동 산 1-4 (용마폭포공원 테니스장),37.57386121050529,127.09090258632
185,서울특별시 중랑구 중화동 동일로139나길 39 ,37.6050415039063,127.076301574707
186,면목7동 산 1-9 (사가정공원 용비 배드민턴장),37.5798560485057,127.097755420348
187,서울특별시 중랑구 망우동 망우로77길 8 ,37.6014754681576,127.106391293709
188,서울특별시 중랑구 중화동 동일로123길 98 ,37.6009457022214,127.075516789152
189,서울특별시 중랑구 면목동 면목로78길 87 ,37.59188259609979,127.092649752343
190,서울특별시 중랑구 면목동 면목로 211 ,37.572760619523294,127.083263980933
191,서울특별시 중랑구 망우동 용마산로 450 창원빌딩,37.591734928392896,127.098242589703
192,서울특별시 중랑구 면목동 면목로 337 ,37.5827036697604,127.088006139475
193,서울특별시 중랑구 망우동 양원역로 18 중랑숲금호어울림,37.6021222431961,127.108181273785
194,서울특별시 중랑구 면목동 봉우재로 88 ,37.5919684043056,127.083527916023
195,서울특별시 중랑구 신내동 용마산로139가길 60 ,37.6172276713944,127.100618170124
196,서울특별시 중랑구 묵동 숙선옹주로 24 ,37.6144088976138,127.079366402468
197,서울특별시 중랑구 망우동 용마공원로5가길 9 하나빌리지,37.5948582541748,127.102556977081
198,서울특별시 중랑구 중화동 동일로143길 49 ,37.604015350341705,127.075157165527
199,서울특별시 중랑구 상봉동 동일로126길 107 ,37.5990886992838,127.086060587987
200,서울특별시 중랑구 면목동 면목로35길 20 ,37.578125,127.084281921387
201,상봉1동 53-2(망우역뒷편#2고정1),37.600813360790205,127.093693286222
202,서울특별시 중랑구 묵동 동일로154길 15 ,37.609046936035206,127.079612731934
203,서울특별시 중랑구 면목동 면목로 283 우리은행,37.5781043758529,127.085817669994
204,서울특별시 중랑구 묵동 공릉로2길 22 ,37.611499786377,127.07958984375
205,서울특별시 중랑구 중화동 동일로136가길 8 반석주택,37.6022999074422,127.081956779164
206,서울특별시 중랑구 상봉동 상봉중앙로5가길 14 ,37.6010166838702,127.086823567817
207,서울특별시 중랑구 중화동 봉화산로30길 5 ,37.6019515991211,127.085113525391
208,서울특별시 중랑구 망우동 망우로87길 27 ,37.601375579834,127.11149597168
209,서울특별시 중랑구 면목동 겸재로40길 71 ,37.5847625732422,127.087471008301
210,서울특별시 중랑구 면목동 면목로35길 33 ,37.5785217285156,127.08374786377
211,서울특별시 중랑구 면목동 겸재로18길 33 ,37.5854339599609,127.081390380859
212,서울특별시 중랑구 면목동 면목로 437 ,37.5913581848145,127.08618927002
213,망우본동 산 51-4 (망우공원묘지입구 고정),37.6014678024384,127.114579953494
214,서울특별시 중랑구 면목동 답십리로77가길 15 ,37.5746039094437,127.082478087626
215,서울특별시 중랑구 망우동 양원역로 5 ,37.6018871009563,127.10871117333
216,면목4동 산 1-4 (용마폭포공원 배드민턴장),37.5742563168346,127.090931145928
217,서울특별시 중랑구 면목동 면목로 286 고려체육관,37.5784252207887,127.086718741717
218,서울특별시 중랑구 면목동 면목로 233 ,37.574127963146296,127.084186798314
219,서울특별시 중랑구 묵동 숙선옹주로 29 ,37.6148529052734,127.080863952637
220,서울특별시 중랑구 상봉동 신내로7가길 54 ,37.6021957397461,127.092742919922
221,서울특별시 중랑구 상봉동 상봉중앙로 43 ,37.6017112731934,127.08708190918
222,서울특별시 중랑구 상봉동 상봉중앙로8가길 3 ,37.602137657158,127.090534643153
223,서울특별시 중랑구 상봉동 상봉중앙로6길 30 ,37.6015396118164,127.089393615723
224,망우본동 583 (중랑숲리가아파트110동),37.6030793525995,127.10543015504
225,서울특별시 중랑구 망우동 용마공원로 36 ,37.5918394493551,127.101735449306
226,서울특별시 중랑구 망우동 망우로73길 20 ,37.6012342779553,127.104728151838
227,서울특별시 중랑구 묵동 공릉로12가길 29 ,37.6171263603418,127.081242341521
228,서울특별시 중랑구 중화동 동일로123길 98 ,37.60084152221671,127.075187683105
229,서울특별시 중랑구 망우동 망우로77길 34 ,37.602020263671896,127.10595703125
230,서울특별시 중랑구 중화동 동일로121길 20 세광하니타운,37.596622467041,127.080108642578
231,서울특별시 중랑구 묵동 동일로 894 ,37.6105914667537,127.078281286028
232,서울특별시 중랑구 망우동 양원역로6가길 35 ,37.602025056511,127.110195182724
233,서울특별시 중랑구 상봉동 봉우재로 129 ,37.5936241149902,127.087295532227
234,서울특별시 중랑구 신내동 신내로 127 신내9단지신내아파트,37.6104431152344,127.095932006836
235,서울특별시 중랑구 중화동 동일로139나길 39 ,37.6052401034454,127.07613303928
236,서울특별시 중랑구 면목동 동일로 589 ,37.5837290205092,127.079253983861
237,서울특별시 중랑구 면목동 겸재로 248 ,37.5892116218421,127.0958121786
238,서울특별시 중랑구 면목동 겸재로42길 22 ,37.5870396693815,127.089069247907
239,서울특별시 중랑구 망우동 망우로67가길 3 ,37.6020245907966,127.101115589723
240,서울특별시 중랑구 면목동 용마산로94길 37 ,37.58840111552371,127.099847673627
241,서울특별시 중랑구 망우동 양원역로16길 103 ,37.608726794881605,127.112658560608
242,서울특별시 중랑구 면목동 면목로56가길 2 ,37.584552364765,127.089275535312
243,서울특별시 중랑구 망우동 망우로67가길 27 ,37.602333068847706,127.103630065918
244,서울특별시 중랑구 중화동 동일로140길 88 중화동건영아파트,37.6058719153928,127.083254160602
245,서울특별시 중랑구 면목동 용마산로 349 ,37.5836906433105,127.093544006348
246,서울특별시 중랑구 면목동 겸재로49길 46 ,37.591850280761705,127.090118408203
247,서울특별시 중랑구 망우동 용마공원로 41 ,37.59126005494029,127.102305489293
248,서울특별시 중랑구 면목동 면목로78길 69 ,37.5914009663305,127.091567257165
249,서울특별시 중랑구 묵동 동일로149다길 18 ,37.6072387695313,127.07421875
250,서울특별시 중랑구 묵동 공릉로12가길 70 ,37.6183013916016,127.083335876465
251,서울특별시 중랑구 면목동 면목로78길 69 ,37.5918517054842,127.091949865417
252,서울특별시 중랑구 상봉동 동일로126길 97 ,37.5996398925781,127.085739135742
253,서울특별시 중랑구 면목동 봉우재로 17 ,37.5908211877104,127.075239553564
254,서울특별시 중랑구 신내동 신내로 201 홈플러스서울신내점,37.61658062138029,127.093416821047
255,서울특별시 중랑구 면목동 망우로30길 34 ,37.591796875,127.074066162109
256,서울특별시 중랑구 면목동 면목로56나길 26 연리지,37.5855375853549,127.090123397198
257,서울특별시 중랑구 묵동 중랑천로 262 ,37.6083755493164,127.073188781738
258,서울특별시 중랑구 면목동 사가정로 399 동부빌딩,37.580730063015,127.089046203833
259,서울특별시 중랑구 묵동 동일로 847 성일빌딩,37.606170654296896,127.078018188477
260,서울특별시 중랑구 중화동 중랑역로3길 28 ,37.5943489074707,127.074089050293
261,서울특별시 중랑구 면목동 겸재로26길 5 ,37.58607864379879,127.083915710449
262,서울특별시 중랑구 면목동 면목로 430 ,37.590277288655,127.087983550308
263,서울특별시 중랑구 면목동 겸재로 118 ,37.586238861084,127.081275939941
264,서울특별시 중랑구 망우동 용마공원로 55 ,37.5912546997317,127.103040906997
265,서울특별시 중랑구 중화동 동일로 790 ,37.6015175753366,127.079252443968
266,서울특별시 중랑구 면목동 용마산로90길 28 서일대학,37.587568058423,127.098921355974
267,서울특별시 중랑구 면목동 용마산로52길 13 진성빌라,37.5789428161356,127.092376425787
268,서울특별시 중랑구 묵동 동일로 968 ,37.6176216249155,127.078148340614
269,서울특별시 중랑구 묵동 공릉로16길 18 ,37.6181983947754,127.080688476563
270,서울특별시 중랑구 묵동 공릉로12길 37 진주타운,37.6158027648926,127.081634521484
271,서울특별시 중랑구 묵동 동일로152길 53 ,37.6092189680027,127.081184442141
272,서울특별시 중랑구 묵동 공릉로2길 39 금호어울림아파트,37.6128997802734,127.080574035645
273,서울특별시 중랑구 면목동 겸재로27길 81 ,37.5917089831237,127.085858204517
274,서울특별시 중랑구 묵동 동일로 968 ,37.6174468994141,127.078254699707
275,서울특별시 중랑구 면목동 중랑천로 36 ,37.5880550565459,127.074499601157
276,서울특별시 중랑구 신내동 봉화산로52길 48 신내제일교회,37.60502307360471,127.096206547637
277,서울특별시 중랑구 신내동 신내로18길 75 ,37.614597320556605,127.100799560547
278,서울특별시 중랑구 망우동 망우로77길 8 ,37.6012643662064,127.106534811291
279,서울특별시 중랑구 상봉동 봉화산로26가길 39 화인하우스1동,37.6003189086914,127.086585998535
280,서울특별시 중랑구 중화동 중랑역로 64 명치과의원,37.599391937255895,127.078834533691
281,서울특별시 중랑구 중화동 동일로124길 13 ,37.5988349914551,127.081298828125
282,서울특별시 중랑구 중화동 동일로129길 56 함경상회,37.6001739501953,127.076309204102
283,서울특별시 중랑구 중화동 봉화산로 87 ,37.602973937988295,127.084175109863
284,서울특별시 중랑구 면목동 면목로28길 5 ,37.575735779293296,127.086706619357
285,서울특별시 중랑구 중화동 중랑역로15길 22 ,37.5970077514648,127.074005126953
286,서울특별시 중랑구 상봉동 봉우재로 173 ,37.594570168229104,127.092106111272
287,서울특별시 중랑구 중화동 망우로 231 미영리치타운103,37.5956970069933,127.078076748349
288,서울특별시 중랑구 중화동 봉화산로 40 ,37.60058750604271,127.078732923328
289,서울특별시 중랑구 망우동 망우로 442 ,37.599308013916,127.101440429688
290,서울특별시 중랑구 면목동 용마산로94길 31 ,37.589927673339794,127.099258422852
291,서울특별시 중랑구 상봉동 동일로126길 88 ,37.5986813805111,127.085084472605
292,서울특별시 중랑구 상봉동 동일로120길 138 ,37.5984134313012,127.087100307305
293,서울특별시 중랑구 중화동 동일로123길 73 ,37.598793029785206,127.075820922852
294,서울특별시 중랑구 상봉동 신내로7다길 41 상봉베스티움,37.6016417678199,127.092241582349
295,서울특별시 중랑구 중화동 동일로123길 80 인덕하이빌,37.5993537902832,127.076507568359
296,서울특별시 중랑구 묵동 중랑역로 230 ,37.6148223876953,127.075492858887
297,서울특별시 중랑구 면목동 망우로30길 34 ,37.591850280761705,127.074378967285
298,서울특별시 중랑구 묵동 동일로 957 대우팰리스,37.615188907835005,127.075487087256
299,서울특별시 중랑구 면목동 면목로38가길 22 ,37.578826904296896,127.088218688965
300,서울특별시 중랑구 면목동 동일로 645 ,37.5882415771484,127.079055786133
301,서울특별시 중랑구 중화동 중랑천로 162 한일시티빌,37.5992660522461,127.073738098145
302,서울특별시 중랑구 면목동 답십리로75길 120 ,37.5772004011405,127.080611268624
303,서울특별시 중랑구 면목동 겸재로3길 50 서부경로당,37.588872195123294,127.076506414362
304,서울특별시 중랑구 면목동 면목로76길 73 ,37.5908164978027,127.092765808105
305,서울특별시 중랑구 망우동 용마산로117길 29 성주교통,37.6005401611328,127.098541259766
306,서울특별시 중랑구 중화동 중랑역로 43 ,37.5984174939836,127.076570023519
307,서울특별시 중랑구 상봉동 동일로126길 88 ,37.598884582519496,127.08568572998
308,신내1동 819 (신내3단지 배말공원 #2),37.61353683471671,127.111289978027
309,서울특별시 중랑구 면목동 봉우재로 17 ,37.5908619909316,127.075411100223
310,신내1동 산2-37 (청남공원 화장실앞),37.6192634151212,127.110855727611
311,서울특별시 중랑구 면목동 겸재로24길 3 ,37.58657836914061,127.082527160645
312,서울특별시 중랑구 면목동 동일로 622 ,37.586147054510896,127.08078514269
313,서울특별시 중랑구 중화동 중랑역로 58 ,37.598548889160206,127.078590393066
314,서울특별시 중랑구 면목동 겸재로42길 22 ,37.587048848335,127.089434042755
315,신내2동 783 (예원유치원앞),37.6043192344707,127.093948251683
316,서울특별시 중랑구 상봉동 망우로 192 ,37.5934805025144,127.074978168135
317,서울특별시 중랑구 면목동 용마산로45길 16 명도연립,37.574500936772296,127.087602874118
318,서울특별시 중랑구 상봉동 동일로120길 79 ,37.5979437940331,127.084569354889
319,서울특별시 중랑구 면목동 면목로76길 54 도형빌라,37.5905012897354,127.091700451154
320,서울특별시 중랑구 상봉동 망우로 363 가로판매대1,37.598917608583,127.092838308545
321,서울특별시 중랑구 상봉동 상봉중앙로1다길 63 ,37.600559718009,127.090227796355
322,서울특별시 중랑구 면목동 면목로35길 44 ,37.5792343537684,127.083242360903
323,서울특별시 중랑구 망우동 망우로 479 ,37.60166549682621,127.105995178223
324,서울특별시 중랑구 중화동 중랑역로 43 ,37.5985179498141,127.07644707648
325,서울특별시 중랑구 상봉동 망우로55길 39 ,37.599214622229496,127.094385214335
326,서울특별시 중랑구 상봉동 신내로7가길 19 ,37.602504671295,127.094957185633
327,서울특별시 중랑구 묵동 동일로154길 53 ,37.6105728149414,127.081871032715
328,서울특별시 중랑구 중화동 동일로144가길 25 ,37.6062672761645,127.081317384724
329,서울특별시 중랑구 중화동 망우로 231 미영리치타운103,37.5959887161474,127.07821601082
330,서울특별시 중랑구 중화동 동일로126길 17 더하우스도도,37.5997161865234,127.081809997559
331,서울특별시 중랑구 면목동 면목로 421 ,37.5897370037174,127.086763017529
332,서울특별시 중랑구 면목동 동일로 631 ,37.587751556319496,127.07979453171
333,서울특별시 중랑구 면목동 면목로 242 ,37.5747230668642,127.085829843359
334,서울특별시 중랑구 망우동 망우로77길 8 ,37.60121536254879,127.106163024902
335,서울특별시 중랑구 면목동 면목로49길 44 청솔하이빌,37.5838012695313,127.085632324219
336,서울특별시 중랑구 중화동 중랑역로 50 ,37.5980402628222,127.077487863188
337,서울특별시 중랑구 망우동 용마공원로9길 29 용마하이츠빌라,37.593770542707,127.103101882869
338,서울특별시 중랑구 면목동 겸재로 165 ,37.5887723218495,127.086804343939
339,서울특별시 중랑구 면목동 동일로109가길 5 현대휴온아파트,37.5929183959961,127.078216552734
340,서울특별시 중랑구 면목동 겸재로 155 ,37.5885222253904,127.084045459601
341,서울특별시 중랑구 묵동 동일로152길 53 ,37.6092567443848,127.081558227539
342,서울특별시 중랑구 묵동 동일로146길 29 ,37.607963562011705,127.080993652344
343,서울특별시 중랑구 면목동 겸재로49길 45 ,37.5914649963379,127.089141845703
344,서울특별시 중랑구 망우동 망우로70길 55 ,37.597120420486895,127.10304824599
345,서울특별시 중랑구 신내동 망우로65길 15 ,37.6016845703125,127.099449157715
346,서울특별시 중랑구 중화동 동일로130길 21 ,37.600700378418,127.081924438477
347,서울특별시 중랑구 면목동 면목로38나길 32 현대하이츠빌,37.5786933898926,127.089469909668
348,서울특별시 중랑구 망우동 망우로74가길 3 ,37.5983951601404,127.104085158251
349,서울특별시 중랑구 상봉동 상봉중앙로1다길 47 ,37.59989966201871,127.090018324695
350,서울특별시 중랑구 중화동 동일로 768 ,37.59959030151371,127.080551147461
351,서울특별시 중랑구 신내동 봉화산로 220 원당아파트,37.607004083694704,127.097488672386
352,서울특별시 중랑구 상봉동 동일로126다길 22 ,37.597475209513895,127.085955921672
353,서울특별시 중랑구 상봉동 동일로120길 138 ,37.5983566171538,127.087768745064
354,서울특별시 중랑구 중화동 봉화산로2길 57 ,37.5985527038574,127.07470703125
355,서울특별시 중랑구 면목동 겸재로15길 35 이화피아노,37.588680267334,127.081214904785
356,서울특별시 중랑구 면목동 용마산로 409 아이비고시원,37.5881360913296,127.095521973419
357,서울특별시 중랑구 면목동 사가정로60길 11 ,37.57919107005671,127.090685558522
358,서울특별시 중랑구 망우동 봉우재로57길 32 ,37.5965270996094,127.095375061035
359,서울특별시 중랑구 상봉동 망우로 275 ,37.59683227539061,127.083930969238
360,서울특별시 중랑구 중화동 중랑천로 121 ,37.596565246582,127.072769165039
361,서울특별시 중랑구 중화동 중랑천로 130 ,37.597572326660206,127.072692871094
362,서울특별시 중랑구 면목동 면목로28길 23 ,37.5757446289063,127.087043762207
363,서울특별시 중랑구 면목동 상봉로 25 ,37.5882339477539,127.093841552734
364,서울특별시 중랑구 중화동 동일로 836 ,37.605525970459,127.079452514648
365,서울특별시 중랑구 망우동 용마공원로 19 ,37.5931819293519,127.101667545144
366,서울특별시 중랑구 망우동 망우로68길 65 ,37.596513294623605,127.101028577445
367,서울특별시 중랑구 면목동 겸재로24길 3 ,37.5865018064248,127.082126083387
368,서울특별시 중랑구 상봉동 망우로55길 69 상봉연립,37.6004414231132,127.09536524449
369,서울특별시 중랑구 면목동 겸재로 68 인문학도서당,37.5852203369141,127.075592041016
370,서울특별시 중랑구 묵동 동일로146길 43 나인빌라,37.6074205212399,127.081121322052
371,서울특별시 중랑구 면목동 겸재로 155 ,37.588465094867296,127.084852233079
372,서울특별시 중랑구 면목동 동일로 631 ,37.58713912963871,127.079086303711
373,서울특별시 중랑구 묵동 중랑역로 185 ,37.6106414794922,127.076164245605
374,서울특별시 중랑구 면목동 겸재로26길 5 ,37.5868072509766,127.083488464355
375,서울특별시 중랑구 면목동 겸재로24길 3 ,37.586112976074205,127.082847595215
376,서울특별시 중랑구 면목동 면목로55길 24 ,37.5843544006348,127.086929321289
377,서울특별시 중랑구 면목동 겸재로50나길 45 ,37.586128234863295,127.093971252441
378,서울특별시 중랑구 망우동 망우로68길 21 ,37.5985107421875,127.101058959961
379,서울특별시 중랑구 묵동 중랑역로 164 ,37.6080124210889,127.076960353352
380,서울특별시 중랑구 면목동 면목로78길 69 ,37.5916972351417,127.091215994591
381,서울특별시 중랑구 면목동 면목로44가길 40 ,37.5821495056152,127.090476989746
382,서울특별시 중랑구 중화동 중랑역로 48 ,37.597937069546205,127.077525214593
383,서울특별시 중랑구 면목동 면목로 261 ,37.57627487182621,127.085342407227
384,서울특별시 중랑구 면목동 면목로 302 ktf,37.5790901184082,127.087882995605
385,서울특별시 중랑구 묵동 동일로149다길 18 ,37.607799530029205,127.074920654297
386,서울특별시 중랑구 면목동 겸재로54가길 3 부영벨리스,37.5865722827669,127.091641751786
387,서울특별시 중랑구 중화동 중랑역로 21 세화당약국,37.5955193484794,127.075140626386
388,서울특별시 중랑구 면목동 용마산로 271 면목금호어울림아파트,37.5773049659791,127.089806670696
389,서울특별시 중랑구 면목동 용마산로94길 37 ,37.5888590366709,127.099758295505
390,서울특별시 중랑구 중화동 중랑역로13길 10 ,37.596571857968605,127.074631878597
391,서울특별시 중랑구 면목동 용마산로 313 ,37.5800162618755,127.092132984747
392,상봉1동 산4-1 (봉수대공원그네앞),37.6070137023926,127.09130859375
393,서울특별시 중랑구 망우동 망우로67가길 12 ,37.6025619506836,127.1025390625
394,서울특별시 중랑구 면목동 겸재로10길 33 진주하이츠,37.5848015580485,127.078924519279
395,서울특별시 중랑구 중화동 동일로 824 신성빌딩,37.6042997845004,127.079585279997
396,서울특별시 중랑구 신내동 신내역로1길 127 ,37.6172476285823,127.108985239604
397,서울특별시 중랑구 면목동 겸재로15길 76 ,37.5891761779785,127.083702087402
398,서울특별시 중랑구 망우동 망우로 429 ,37.60093010373679,127.099763273841
399,서울특별시 중랑구 망우동 용마산로100길 20 금강어린이집,37.59134780100771,127.099341395316
400,서울특별시 중랑구 망우동 용마산로100길 40 ,37.59080123901371,127.099433898926
401,서울특별시 중랑구 중화동 중랑천로 216 ,37.6048812866211,127.07430267334
402,서울특별시 중랑구 망우동 망우로 460 ,37.5997625726416,127.103926113843
403,서울특별시 중랑구 면목동 답십리로77가길 15 ,37.57470703125,127.082893371582
404,서울특별시 중랑구 중화동 중랑역로 16 ,37.59577665502661,127.077510883091
405,서울특별시 중랑구 신내동 망우로63길 27 지우빌,37.6012725830078,127.097831726074
406,서울특별시 중랑구 묵동 동일로 880 일룸,37.6098327031381,127.07860068832
407,서울특별시 중랑구 면목동 용마산로 408 gs25시,37.587703704834,127.096664428711
408,서울특별시 중랑구 중화동 중랑역로3길 44 ,37.595405578613295,127.073371887207
409,서울특별시 중랑구 망우동 용마공원로 29 ,37.5923538208008,127.101211547852
410,서울특별시 중랑구 면목동 겸재로 119 함내과의원,37.587947845459,127.081245422363
411,서울특별시 중랑구 묵동 중랑역로 198 ,37.611882941829,127.076652993694
412,서울특별시 중랑구 면목동 겸재로10길 50 놀이터슈퍼,37.5830078125,127.078804016113
413,서울특별시 중랑구 중화동 동일로123길 73 ,37.5981216430664,127.075592041016
414,서울특별시 중랑구 면목동 면목로 284 HY에코시티빌,37.5776329040527,127.086860656738
415,서울특별시 중랑구 면목동 겸재로9길 36 ,37.588134765625,127.078346252441
416,서울특별시 중랑구 면목동 용마산로94길 9 ,37.5897216796875,127.098495483398
417,서울특별시 중랑구 망우동 망우로71가길 5 ,37.6031265258789,127.102149963379
418,서울특별시 중랑구 상봉동 망우로30길 8 ,37.592700958252,127.074752807617
419,서울특별시 중랑구 면목동 용마산로58길 25 ,37.5785636901855,127.093307495117
420,서울특별시 중랑구 망우동 송림길 114 동원초등학교,37.6054267883301,127.10457611084
421,서울특별시 중랑구 면목동 겸재로50가길 21 ,37.5872421264648,127.093727111816
422,서울특별시 중랑구 묵동 공릉로2다길 30 ,37.6135292053223,127.081474304199
423,서울특별시 중랑구 면목동 동일로109길 72 ,37.5910654496388,127.075717945111
424,서울특별시 중랑구 면목동 겸재로 83 ,37.5867805480957,127.077224731445
425,서울특별시 중랑구 면목동 겸재로54가길 3 부영벨리스,37.5863509022994,127.091624966029
426,서울특별시 중랑구 묵동 중랑역로 230 ,37.6142336743075,127.075444049817
427,서울특별시 중랑구 면목동 면목로78길 87 ,37.59153366088871,127.092506408691
428,서울특별시 중랑구 상봉동 망우로 275 ,37.59682083129879,127.083633422852
429,서울특별시 중랑구 묵동 공릉로12길 26 풀내음아파트,37.6155696220572,127.0808720719
430,서울특별시 중랑구 상봉동 망우로48길 20 ,37.5957794189453,127.088172912598
431,서울특별시 중랑구 묵동 동일로143길 36 ,37.605007171630895,127.075401306152
432,서울특별시 중랑구 면목동 용마산로 361 영스포츠,37.5841781454903,127.093108067111
433,서울특별시 중랑구 면목동 면목로 223 ,37.5730628967285,127.084182739258
434,면목4동 산 1-4 (크라임경기장 고정),37.5730209558889,127.091301074429
435,서울특별시 중랑구 면목동 동일로100길 100 ,37.5911102294922,127.084663391113
436,서울특별시 중랑구 면목동 동일로109길 56 ,37.5922029445943,127.07600228891
437,서울특별시 중랑구 중화동 중랑천로 130 ,37.5975096410523,127.072179869906
438,서울특별시 중랑구 상봉동 면목로 472 ,37.5940519420805,127.086659143198
439,서울특별시 중랑구 면목동 겸재로10길 33 진주하이츠,37.5845320830348,127.078231995845
440,서울특별시 중랑구 면목동 면목로44마길 43 ,37.583221435546896,127.09236907959
441,묵2동 378  (행사장 보조),37.614799499511705,127.072982788086
442,서울특별시 중랑구 면목동 겸재로3길 24 ,37.5879669189453,127.07691192627
443,서울특별시 중랑구 면목동 겸재로28길 56 ,37.5846774939795,127.083198937141
444,서울특별시 중랑구 면목동 답십리로77길 76 현대하이츠빌라,37.5751940088515,127.082347326958
445,서울특별시 중랑구 묵동 동일로146길 9 ,37.606456756591705,127.079856872559
446,서울특별시 중랑구 면목동 사가정로72길 47 중랑문화체육관,37.5795249938965,127.095100402832
447,서울특별시 중랑구 상봉동 동일로110길 13 ,37.5922737121582,127.081512451172
448,서울특별시 중랑구 면목동 용마산로 434 청파빌딩,37.5900917053223,127.097999572754
449,서울특별시 중랑구 면목동 용마산로 285 대원칸타빌아파트,37.5789222717285,127.090454101563
450,서울특별시 중랑구 상봉동 상봉중앙로 32 ,37.6003265380859,127.087226867676
451,서울특별시 중랑구 면목동 용마산로 297 소망교회,37.5794534772275,127.091919377352
452,서울특별시 중랑구 면목동 면목로 337 ,37.5822327795418,127.088034939473
453,서울특별시 중랑구 면목동 면목로 348 ,37.583580017089794,127.088905334473
454,서울특별시 중랑구 면목동 겸재로50나길 70 산내들빌라,37.585262298584,127.093818664551
455,서울특별시 중랑구 면목동 면목로 388 청명에버빌,37.5877075195313,127.088737487793
456,서울특별시 중랑구 면목동 봉우재로48길 18 ,37.592529296875,127.091339111328
457,서울특별시 중랑구 망우동 겸재로 239 ,37.5906448364258,127.094833374023
458,서울특별시 중랑구 면목동 겸재로29길 26 ,37.5895004272461,127.085914611816
459,서울특별시 중랑구 면목동 용마산로 382 정이든 빌딩,37.58543014526371,127.095497131348
460,서울특별시 중랑구 망우동 용마산로 562 ,37.601169586181605,127.100791931152
461,서울특별시 중랑구 면목동 용마산로 250 용마배수지 용마산돌산공원,37.573970231981896,127.089374086509
462,서울특별시 중랑구 면목동 면목로 450 다움빌딩,37.5928722670943,127.086680565651
463,서울특별시 중랑구 면목동 답십리로77길 122 ,37.5775121004536,127.081176480642
464,서울특별시 중랑구 묵동 공릉로2라길 47 ,37.6143645867484,127.081745756897
465,서울특별시 중랑구 상봉동 동일로126다길 22 ,37.5978689459284,127.08594797216
466,신내1동 산2-37 (전망대),37.6190795898438,127.11156463623
467,서울특별시 중랑구 망우동 봉우재로57가길 3 ,37.5956570052986,127.095035501246
468,신내2동 656-1 (8단지 한아름 공원),37.6133880615234,127.094207763672
469,서울특별시 중랑구 면목동 겸재로54길 79 을해파크빌,37.58587574007829,127.091449413322
470,서울특별시 중랑구 면목동 동일로100길 100 ,37.5915021870833,127.084173221454
471,서울특별시 중랑구 신내동 봉화산로56길 140 대성유니드아파트,37.6022764830159,127.096860166788
472,서울특별시 중랑구 중화동 동일로130길 60 ,37.600658416748,127.08374786377
473,서울특별시 중랑구 면목동 겸재로50가길 21 ,37.5878690079475,127.093452486344
474,서울특별시 중랑구 면목동 동일로95길 31 ,37.5842814222669,127.077568124408
475,서울특별시 중랑구 망우동 용마공원로 29 ,37.5925979614258,127.102470397949
476,서울특별시 중랑구 면목동 면목로38길 39 ,37.5776138305664,127.088432312012
477,서울특별시 중랑구 면목동 망우로32길 37 동부시장(세일종합상가),37.5926749738471,127.077690174989
478,서울특별시 중랑구 망우동 용마산로 455 영원교회,37.5924491882324,127.098281860352
479,서울특별시 중랑구 면목동 겸재로15길 76 ,37.589530944824205,127.083129882813
480,서울특별시 중랑구 면목동 면목로 430 ,37.590602874755895,127.087715148926
481,서울특별시 중랑구 묵동 중랑역로 230 ,37.6148885097434,127.075258327848
482,서울특별시 중랑구 중화동 동일로138길 5 ,37.6043703371513,127.080962730047
483,서울특별시 중랑구 망우동 망우로 460 ,37.5990409851074,127.103324890137
484,서울특별시 중랑구 상봉동 상봉중앙로1가길 8 로얄팰리스,37.5999908447266,127.087104797363
485,서울특별시 중랑구 면목동 동일로 512 ,37.5764150110906,127.08072653917
486,서울특별시 중랑구 망우동 용마공원로 20 ,37.5935821533203,127.100646972656
487,서울특별시 중랑구 면목동 겸재로49길 46 ,37.59134671536,127.090969877876
488,서울특별시 중랑구 망우동 망우로76길 11 ,37.599822998046896,127.105155944824
489,서울특별시 중랑구 상봉동 망우로 282 ,37.595016812576,127.084833816027
490,서울특별시 중랑구 묵동 중랑역로 142 ,37.6060098051952,127.077032352014
491,서울특별시 중랑구 신내동 용마산로139나길 23 THE-H,37.6178245544434,127.101188659668
492,서울특별시 중랑구 묵동 숙선옹주로 3 ,37.6157144090883,127.077042848709
493,서울특별시 중랑구 망우동 용마산로100길 40 ,37.5900822956838,127.100877257839
494,서울특별시 중랑구 중화동 중랑역로 43 ,37.59893035888671,127.076133728027
495,서울특별시 중랑구 신내동 신내로 110 동성아파트,37.608937158810704,127.095774966961
496,서울특별시 중랑구 면목동 동일로 557 신우아파트,37.58010021983871,127.079473697778
497,서울특별시 중랑구 망우동 겸재로61가길 3 ,37.59116744995121,127.094230651855
498,서울특별시 중랑구 중화동 동일로138길 5 ,37.6040360427976,127.080528612696
499,서울특별시 중랑구 면목동 사가정로 415 ,37.5800978756319,127.091279003647
500,서울특별시 중랑구 신내동 봉화산로56길 99 ,37.604907989502,127.098892211914
501,서울특별시 중랑구 면목동 면목로37길 48 ,37.5806083679199,127.083908081055
502,서울특별시 중랑구 신내동 봉화산로52길 13 ,37.606945037841705,127.097137451172
503,서울특별시 중랑구 묵동 동일로146길 29 ,37.6073043034552,127.080362700655
504,서울특별시 중랑구 면목동 봉우재로 17 ,37.59033203125,127.075325012207
505,서울특별시 중랑구 묵동 중랑역로 164 ,37.608970649450605,127.076212205361
506,서울특별시 중랑구 묵동 숙선옹주로 113 ,37.6182098388672,127.08716583252
507,서울특별시 중랑구 망우동 망우로68길 43 ,37.597910156736205,127.101305831917
508,서울특별시 중랑구 망우동 망우로77길 8 ,37.6012105543189,127.10661251596
509,묵2동 235-85 (월드메르디앙@ 101동 맞은편),37.6134526590405,127.072842610986
510,서울특별시 중랑구 면목동 겸재로10길 7 그린검침소,37.5857371140284,127.078403228605
511,서울특별시 중랑구 면목동 겸재로 230 한솔도배학원,37.5897941589355,127.09342956543
512,서울특별시 중랑구 망우동 용마공원로 58 ,37.590269580324296,127.102326630777
513,서울특별시 중랑구 묵동 공릉로 62 ,37.6162153365515,127.079946327369
514,서울특별시 중랑구 면목동 면목로35길 20 ,37.5783791163372,127.084960580246
515,서울특별시 중랑구 면목동 답십리로77길 28 ,37.5729481665517,127.082675895442
516,서울특별시 중랑구 면목동 동일로102길 21 ,37.590980529785206,127.081665039063
517,서울특별시 중랑구 면목동 봉우재로 44 ,37.59058761596671,127.078140258789
518,서울특별시 중랑구 묵동 동일로 870 ,37.60837478691089,127.078779439989
519,서울특별시 중랑구 면목동 겸재로 73 ,37.5865447037797,127.076473128845
520,서울특별시 중랑구 면목동 답십리로77길 73 ,37.575500296448496,127.081431927253
521,서울특별시 중랑구 중화동 중랑천로 216 ,37.6043995665882,127.074892593573
522,묵2동 242-43 (중랑천 묵동 계단옆),37.6076583862305,127.072929382324
523,서울특별시 중랑구 중화동 봉화산로30길 5 ,37.601091065713206,127.085799532057
524,서울특별시 중랑구 중화동 중랑역로 50 ,37.5980581419876,127.077493068288
525,서울특별시 중랑구 신내동 봉화산로56길 86 아지 0213,37.6046025390799,127.097818779442
526,서울특별시 중랑구 신내동 신내로21길 116 옹기테마공원 한지체험장,37.6126734069226,127.088658620662
527,신내1동 139(봉화산정상체육시설 보조4),37.60862350463871,127.087455749512
528,서울특별시 중랑구 망우동 용마산로100길 40 ,37.5909385681152,127.100570678711
529,서울특별시 중랑구 상봉동 망우로50길 25 ,37.595202747165,127.089267033053
530,서울특별시 중랑구 상봉동 동일로112길 39 에이스빌,37.593165468075206,127.083060172197
531,서울특별시 중랑구 망우동 봉우재로 184 ,37.5946961813818,127.093022410591
532,서울특별시 중랑구 면목동 답십리로75길 6 ,37.572047217002,127.081591743911
533,서울특별시 중랑구 상봉동 봉우재로 89 ,37.592796719703,127.083698931845
534,서울특별시 중랑구 망우동 봉우재로65길 21 ,37.596687904342495,127.097447665457
535,서울특별시 중랑구 상봉동 동일로112길 39 에이스빌,37.5939788818359,127.083419799805
536,서울특별시 중랑구 면목동 용마산로58길 35 ,37.5779724121094,127.09300994873
537,서울특별시 중랑구 묵동 동일로149길 41 ,37.606452941894496,127.075210571289
538,서울특별시 중랑구 중화동 동일로124길 29 ,37.5983678644539,127.082984557145
539,서울특별시 중랑구 상봉동 동일로 711 오피스텔 리움,37.5940805820925,127.079631884321
540,서울특별시 중랑구 묵동 동일로 961 유니오모텔,37.6163511362558,127.07553071169
541,서울특별시 중랑구 면목동 면목로30길 19 퍼플하우스,37.57694797803671,127.087652945763
542,서울특별시 중랑구 상봉동 면목로 472 ,37.594730567034205,127.086142057157
543,신내2동 660-1 (꽃피울어린이공원),37.6084581679221,127.094140806357
544,서울특별시 중랑구 묵동 공릉로2길 22 ,37.611060287826206,127.079959702526
545,서울특별시 중랑구 중화동 동일로 758 ,37.598274230957,127.080909729004
546,서울특별시 중랑구 망우동 망우로 460 ,37.5991784269739,127.10358349632
547,서울특별시 중랑구 망우동 망우로 395 ,37.5999550444474,127.096583850304
548,서울특별시 중랑구 중화동 동일로136가길 13 ,37.6034698486328,127.08177947998
549,서울특별시 중랑구 망우동 양원역로6가길 37 ,37.6016502380371,127.110176086426
550,서울특별시 중랑구 면목동 봉우재로 126 ,37.5921355782808,127.087688446163
551,서울특별시 중랑구 망우동 용마산로117길 29 성주교통,37.6006469726563,127.098983764648
552,서울특별시 중랑구 신내동 용마산로139나길 38 ,37.617702484130895,127.102478027344
553,서울특별시 중랑구 묵동 공릉로12가길 29 ,37.617739564086,127.081310587812
554,서울특별시 중랑구 중화동 중랑역로15길 22 ,37.597816467285206,127.074012756348
555,서울특별시 중랑구 묵동 공릉로2가길 28 ,37.6133689880371,127.079452514648
556,서울특별시 중랑구 면목동 동일로109가길 5 현대휴온아파트,37.5921127253601,127.078120096572
557,서울특별시 중랑구 망우동 겸재로61길 50 ,37.5927886962891,127.094696044922
558,서울특별시 중랑구 중화동 중랑천로 227 ,37.60526937976471,127.073472060796
559,서울특별시 중랑구 면목동 면목로 421 ,37.5902479358132,127.086281881838
560,서울특별시 중랑구 묵동 중랑천로 332 묵동한국아파트,37.61497116088871,127.073120117188
561,서울특별시 중랑구 묵동 공릉로2가길 28 ,37.6136322021484,127.079521179199
562,서울특별시 중랑구 면목동 겸재로27길 79 ,37.5904769897461,127.085159301758
563,서울특별시 중랑구 면목동 면목로 217 북부운수,37.573429107666,127.08309173584
564,서울특별시 중랑구 면목동 상봉로 47 ,37.5904388427734,127.09383392334
565,서울특별시 중랑구 신내동 망우로63길 31 ,37.60170364379879,127.098655700684
566,서울특별시 중랑구 중화동 동일로 812 진성빌딩,37.60316848754879,127.079879760742
567,서울특별시 중랑구 묵동 공릉로 62 ,37.61690521240229,127.079742431641
568,서울특별시 중랑구 신내동 신내역로1길 139 ,37.6180779459106,127.110955112465
569,서울특별시 중랑구 상봉동 동일로126길 97 ,37.5996055603027,127.085098266602
570,서울특별시 중랑구 면목동 겸재로24길 3 ,37.58648251173079,127.082279571926
571,서울특별시 중랑구 신내동 봉화산로45길 115 ,37.608249664306605,127.09260559082
572,서울특별시 중랑구 면목동 면목로 421 ,37.590701947456,127.086849393417
573,서울특별시 중랑구 면목동 겸재로 138 한밀교회 성결,37.5878105163574,127.083885192871
574,서울특별시 중랑구 묵동 중랑역로 173 ,37.6098292432724,127.076292081962
575,서울특별시 중랑구 묵동 신내로25가길 2 현동학당,37.619752045874,127.084469742928
576,서울특별시 중랑구 묵동 숙선옹주로 109 ,37.6185073852539,127.086288452148
577,서울특별시 중랑구 망우동 봉우재로58길 38 혜원쉐르빌,37.592460632324205,127.09595489502
578,서울특별시 중랑구 망우동 망우로67길 20 ,37.6019592285156,127.101707458496
579,서울특별시 중랑구 면목동 동일로 516 현진빌딩,37.57603935700861,127.079995140418
580,서울특별시 중랑구 면목동 면목로76길 73 ,37.5906633834792,127.092233088738
581,서울특별시 중랑구 묵동 공릉로12가길 15 ,37.6176338195801,127.080436706543
582,서울특별시 중랑구 망우동 용마산로100길 40 ,37.590602874755895,127.100303649902
583,서울특별시 중랑구 묵동 중랑역로 219 ,37.613669216863705,127.075353874577
584,서울특별시 중랑구 묵동 공릉로2길 22 ,37.6114061500994,127.079098199277
585,서울특별시 중랑구 면목동 겸재로49길 46 ,37.5914469037588,127.090884618976
586,서울특별시 중랑구 중화동 동일로123길 98 ,37.60044479370121,127.075271606445
587,서울특별시 중랑구 면목동 겸재로 203 ,37.5896958223874,127.090337652076
588,서울특별시 중랑구 면목동 겸재로 165 ,37.5887107849121,127.086265563965
589,서울특별시 중랑구 면목동 면목로78길 87 ,37.5917127225576,127.092119402498
590,서울특별시 중랑구 중화동 봉화산로 33 ,37.6010093688965,127.078964233398
591,신내1동  817-49 (신내3단지 능말공원 #1),37.61655807495121,127.109024047852
592,서울특별시 중랑구 면목동 겸재로48길 27 장호아트맨션,37.58762741088871,127.090461730957
593,서울특별시 중랑구 상봉동 봉우재로37가길 19 ,37.5941515803148,127.089405110825
594,서울특별시 중랑구 중화동 중랑천로15길 10 ,37.5940361022949,127.071380615234
595,서울특별시 중랑구 면목동 겸재로23가길 34 ,37.58888626098629,127.083122253418
596,서울특별시 중랑구 상봉동 면목로 473 ,37.5949850507837,127.085001677874
597,망우본동 산 56 (망우로 망우검문소 앞),37.600199088234,127.11199156441002
598,서울특별시 중랑구 면목동 겸재로 212 영진맨션,37.5886175431578,127.091936846166
599,서울특별시 중랑구 면목동 겸재로 193 ,37.58826574273579,127.08948513437
600,서울특별시 중랑구 중화동 동일로124길 54 ,37.5998446967742,127.082875713021
601,서울특별시 중랑구 면목동 면목로76길 73 ,37.59080123901371,127.092613220215
602,서울특별시 중랑구 면목동 중랑천로 36 ,37.5888023376465,127.074279785156
603,상봉1동 497 (OK공인중개사 건너편 인도),37.604190826416,127.092414855957
604,서울특별시 중랑구 면목동 중랑천로 14 일신강변아파트,37.5869754002938,127.074136609839
605,서울특별시 중랑구 면목동 겸재로54길 51 모던 빌,37.5862617492676,127.092460632324
606,서울특별시 중랑구 중화동 중랑천로 216 ,37.6044416784184,127.07474094605
607,서울특별시 중랑구 묵동 중랑역로 269 ,37.616192846466205,127.078439460295
608,서울특별시 중랑구 망우동 봉우재로71길 68 ,37.5976285069852,127.096313383014
609,서울특별시 중랑구 중화동 동일로 825 ,37.604381561279205,127.078147888184
610,서울특별시 중랑구 면목동 상봉로 25 ,37.5888965822832,127.093289481525
611,서울특별시 중랑구 면목동 사가정로72길 47 중랑문화체육관,37.5799921935489,127.095066772735
612,서울특별시 광진구 중곡동 답십리로 392 ,37.5717747486251,127.084770185453
613,서울특별시 중랑구 중화동 동일로138길 5 ,37.6048606524515,127.080227605916
614,서울특별시 중랑구 망우동 망우로62길 48 태건상회,37.59633255004879,127.098373413086
615,서울특별시 중랑구 묵동 동일로 847 성일빌딩,37.60680937818479,127.078272596651
616,서울특별시 중랑구 중화동 중랑역로13길 10 ,37.59629440307621,127.074851989746
617,서울특별시 중랑구 망우동 용마산로 498 ,37.5954522442834,127.100236905627
618,서울특별시 중랑구 면목동 겸재로 165 ,37.5886370360468,127.086009500993
619,서울특별시 중랑구 면목동 봉우재로 146 ,37.593414908126,127.089305267866
620,서울특별시 중랑구 상봉동 봉화산로 112 ,37.6026818266952,127.087294387757
621,서울특별시 중랑구 상봉동 봉화산로 112 ,37.602077484130895,127.087554931641
622,서울특별시 중랑구 묵동 동일로154길 53 ,37.6104438927689,127.081022814225
623,서울특별시 중랑구 상봉동 망우로 198 ,37.593989373969,127.0757151358
624,서울특별시 중랑구 망우동 망우로74가길 3 ,37.5984878540039,127.104904174805
625,서울특별시 중랑구 면목동 봉우재로 110 ,37.5920333862305,127.085723876953
626,서울특별시 중랑구 면목동 면목로 415 롯데리아,37.589656829834,127.087135314941
627,서울특별시 중랑구 면목동 동일로101길 78 ,37.5882798767012,127.075218791454
628,서울특별시 중랑구 상봉동 봉우재로 159 다솜빌,37.5946679192434,127.090052905509
629,서울특별시 중랑구 면목동 면목로 261 ,37.5767860412598,127.085205078125
630,서울특별시 중랑구 면목동 용마산로94길 55 ,37.588024867985794,127.100125022117
631,서울특별시 중랑구 면목동 용마산로86길 21 ,37.5877304077148,127.09741973877
632,서울특별시 중랑구 면목동 겸재로15길 42 ,37.5880088806152,127.082931518555
633,서울특별시 중랑구 면목동 겸재로 138 한밀교회 성결,37.58740234375,127.08366394043
634,서울특별시 중랑구 면목동 겸재로54가길 3 부영벨리스,37.5869611121043,127.091727652978
635,서울특별시 중랑구 면목동 겸재로54길 99 ,37.5843353271484,127.091232299805
636,서울특별시 중랑구 묵동 동일로144길 21 ,37.606532524647605,127.08056294992
637,서울특별시 중랑구 면목동 용마산로94길 64 ,37.587693961438205,127.101028220985
638,서울특별시 중랑구 면목동 겸재로24길 25 ,37.5855882184059,127.082025055999
639,서울특별시 중랑구 면목동 면목로 369 평안제일교회,37.5859870483974,127.088417168913
640,서울특별시 중랑구 면목동 겸재로 68 인문학도서당,37.58570480346671,127.075172424316
641,면목3.8동 54-3 (공원계단입구),37.5855255599866,127.096623987056
642,묵1동 20-1 (서당어린이공원),37.617038726806605,127.08814239502
643,서울특별시 중랑구 면목동 면목로56길 27 ,37.5849647521973,127.090255737305
644,서울특별시 중랑구 면목동 겸재로30길 63 ,37.584984841349296,127.084464894078
645,서울특별시 중랑구 묵동 중랑천로 348 ,37.61504364013671,127.074523925781
646,서울특별시 중랑구 면목동 겸재로 187 ,37.5896453857422,127.088195800781
647,서울특별시 중랑구 면목동 용마산로94길 64 ,37.5870396550338,127.100318333616
648,서울특별시 중랑구 망우동 용마공원로 7 ,37.5944175720215,127.101005554199
649,서울특별시 중랑구 면목동 용마산로 250 동국유치원,37.5750752263652,127.089393579272
650,서울특별시 중랑구 면목동 동일로 606 ,37.584766837039794,127.080443719141
651,서울특별시 중랑구 면목동 겸재로54길 79 을해파크빌,37.585807799662106,127.091449330207
652,서울특별시 중랑구 면목동 용마산로 198 곡산실업,37.5717250444854,127.086275078634
653,서울특별시 중랑구 면목동 면목로 360 ,37.5845669575732,127.088891835198
654,서울특별시 중랑구 면목동 면목로 302 ktf,37.5793031781835,127.08783984074
655,서울특별시 중랑구 면목동 용마산로 361 영스포츠,37.5841103828639,127.093779542042
656,서울특별시 중랑구 면목동 면목로44가길 40 ,37.582932133349296,127.090049472401
657,서울특별시 중랑구 상봉동 봉화산로 174 신현고등학교,37.60569381713871,127.092742919922
658,서울특별시 중랑구 면목동 면목로44가길 1 광성교회,37.5811717127589,127.089755934418
659,서울특별시 중랑구 면목동 면목로35길 44 ,37.5793664003533,127.083775773703
660,서울특별시 중랑구 면목동 면목로38가길 3 그린하이츠,37.5786409974628,127.087097102144
661,서울특별시 중랑구 망우동 용마공원로2길 41 ,37.5927276611328,127.099105834961
662,서울특별시 중랑구 면목동 면목로35길 20 ,37.578703297605294,127.084385399056
663,서울특별시 중랑구 신내동 신내로 45 해성빌딩,37.603111267089794,127.095359802246
664,서울특별시 중랑구 면목동 면목로44다길 45 ,37.583366569977606,127.091242695663
665,서울특별시 중랑구 면목동 용마산로94가길 3 ,37.5889049151446,127.097982307082
666,서울특별시 중랑구 면목동 용마산로 419 포도나무교회,37.5897216796875,127.09602355957
667,서울특별시 중랑구 면목동 겸재로 68 인문학도서당,37.5855255126953,127.075294494629
668,서울특별시 중랑구 망우동 양원역로 7 ,37.6010111877754,127.10764399971
669,서울특별시 중랑구 면목동 사가정로42길 77 ,37.57822799682621,127.08186340332
670,서울특별시 중랑구 면목동 면목로 293 SK텔레콤,37.5796775817871,127.0869140625
671,서울특별시 중랑구 묵동 동일로152길 53 ,37.6094932556152,127.08122253418
672,서울특별시 중랑구 상봉동 동일로112길 21 ,37.5932952607355,127.08243301643
673,서울특별시 중랑구 면목동 면목로 406 ,37.5889358520508,127.087310791016
674,서울특별시 중랑구 면목동 봉우재로 88 ,37.5913340049274,127.083242436845
675,서울특별시 중랑구 면목동 면목로38나길 32 현대하이츠빌,37.578152047760895,127.089199648006
676,서울특별시 중랑구 면목동 답십리로81길 135 동서울주택,37.577037811279205,127.084495544434
677,서울특별시 중랑구 묵동 중랑역로 219 ,37.61326217651371,127.075942993164
678,서울특별시 중랑구 면목동 동일로92길 55 ,37.5836334228516,127.083381652832
679,서울특별시 중랑구 면목동 면목로27가길 17 ,37.5761416847061,127.083644916054
680,서울특별시 중랑구 면목동 면목로 415 롯데리아,37.58909225463871,127.087562561035
681,서울특별시 중랑구 면목동 면목로37길 13 서울고시원,37.5792116835173,127.085404255753
682,서울특별시 중랑구 면목동 용마산로94다길 27 ,37.5884031173048,127.101553485194
683,서울특별시 중랑구 면목동 겸재로10길 60 ,37.5832297767787,127.077239762453
684,서울특별시 중랑구 면목동 면목로45길 38 ,37.582763671875,127.086700439453
685,서울특별시 중랑구 면목동 동일로 689 (주)근영,37.592079162597706,127.079032897949
686,서울특별시 중랑구 상봉동 망우로48길 20 ,37.595715329605206,127.088430361548
687,서울특별시 중랑구 면목동 겸재로2길 7 ,37.5848693847656,127.076843261719
688,면목4동 산 1-4(용마폭포공원테니스장앞),37.5740477254885,127.091016455998
689,서울특별시 중랑구 면목동 사가정로 363 다솜어린이집,37.5812157110536,127.085280356219
690,서울특별시 중랑구 면목동 겸재로 165 ,37.5888008278742,127.086940869229
691,서울특별시 중랑구 망우동 용마산로100길 40 ,37.590583801269496,127.099960327148
692,서울특별시 중랑구 중화동 망우로 211 ,37.5948452057333,127.076605801773
693,서울특별시 중랑구 면목동 면목로35길 34 ,37.5792547947527,127.084073803413
694,서울특별시 중랑구 망우동 망우로58길 8 호텔엘엔에스,37.5972721654355,127.09388842993602
695,서울특별시 중랑구 중화동 중랑역로 21 세화당약국,37.5950046559464,127.075318153592
696,서울특별시 중랑구 면목동 면목로44길 23 ,37.5816879272461,127.090446472168
697,서울특별시 중랑구 망우동 봉우재로64길 23 주원그린빌,37.59329986572271,127.097473144531
698,서울특별시 중랑구 면목동 겸재로 154 태양빌딩,37.58727264404301,127.084564208984
699,서울특별시 중랑구 망우동 겸재로61가길 3 ,37.5919532775879,127.095756530762
700,서울특별시 중랑구 묵동 동일로 961 유니오모텔,37.6164207458496,127.075004577637
701,서울특별시 중랑구 상봉동 망우로 216 ,37.5934834830086,127.077622417686
702,서울특별시 중랑구 면목동 면목로84길 41 ,37.592845697001295,127.089741290092
703,서울특별시 중랑구 신내동 봉화산로56길 131 신일빌라,37.6025987619814,127.097347642387
704,서울특별시 중랑구 망우동 봉우재로71길 53 ,37.596248626709,127.096115112305
705,서울특별시 중랑구 상봉동 봉우재로 159 다솜빌,37.59420207621071,127.090055275145
706,서울특별시 중랑구 면목동 중랑천로 53 ,37.5904312133789,127.07398223877
707,서울특별시 중랑구 묵동 중랑천로 252 묵동빌딩,37.60764694213871,127.073677062988
708,서울특별시 중랑구 묵동 중랑역로 164 ,37.6081242096433,127.076617753588
709,서울특별시 중랑구 면목동 용마산로94길 9 ,37.5894737243652,127.098701477051
710,서울특별시 중랑구 망우동 용마공원로 7 ,37.5949868719495,127.101416827896
711,서울특별시 중랑구 면목동 면목로 393 ,37.5870318324076,127.087454610671
712,서울특별시 중랑구 묵동 공릉로 22 ,37.6121406555176,127.078559875488
713,서울특별시 중랑구 중화동 동일로121가길 21 ,37.596160888671896,127.07829284668
714,서울특별시 중랑구 묵동 동일로148가길 14 ,37.608779653973,127.080882620451
715,서울특별시 중랑구 망우동 용마산로 493 동양빌딩,37.595920562744105,127.099052429199
716,서울특별시 중랑구 망우동 겸재로61가길 21 ,37.591031321730206,127.096276669429
717,서울특별시 중랑구 상봉동 상봉중앙로1다길 39 ,37.600461086806895,127.08909136017598
718,서울특별시 중랑구 상봉동 동일로112길 54 ,37.5931473121518,127.084234965404
719,서울특별시 중랑구 면목동 답십리로77길 118 ,37.5760536193848,127.082649230957
720,서울특별시 중랑구 중화동 중랑역로13길 18 ,37.59630090206311,127.073894798749
721,서울특별시 중랑구 면목동 동일로 512 ,37.5765999460324,127.080367903575
722,서울특별시 중랑구 묵동 공릉로 62 ,37.6165907938211,127.079443806534
723,서울특별시 중랑구 면목동 용마산로 426 광진빌딩,37.589084625244105,127.097534179688
724,서울특별시 중랑구 신내동 용마산로139나길 23 THE-H,37.6171137824733,127.10154061141
725,서울특별시 중랑구 묵동 중랑역로 152 ,37.607429504394496,127.077163696289
726,서울특별시 중랑구 묵동 공릉로 52 ,37.6152408772708,127.079516362367
727,서울특별시 중랑구 면목동 겸재로10길 33 진주하이츠,37.5847573637416,127.078225491609
728,서울특별시 중랑구 면목동 답십리로75길 6 ,37.5726109792729,127.08157746852
729,서울특별시 중랑구 상봉동 동일로126다길 22 ,37.5976073323315,127.085272809323
730,서울특별시 중랑구 묵동 중랑천로 316 묵동월드메르디앙아파트,37.61354446411129,127.073768615723
731,서울특별시 중랑구 묵동 중랑역로 207 ,37.6129493713379,127.075500488281
732,서울특별시 중랑구 면목동 동일로100길 74 현대빌라,37.5905532836914,127.083290100098
733,서울특별시 광진구 중곡동 동일로 462 케이티앤지성동지점,37.571717835098205,127.080904253871
734,서울특별시 중랑구 묵동 중랑역로 197 ,37.6110982104699,127.07502298522
735,서울특별시 중랑구 묵동 중랑천로 358 동명빌딩,37.6163090551235,127.0742937725
736,서울특별시 중랑구 면목동 면목로 406 ,37.5888373436673,127.087125709853
737,서울특별시 중랑구 상봉동 상봉중앙로1다길 67 ,37.6004600524902,127.091934204102
738,서울특별시 중랑구 망우동 봉우재로 218 24시슈퍼,37.59462356567379,127.097328186035
739,서울특별시 중랑구 면목동 용마산로94길 55 ,37.5897216796875,127.10099029541
740,서울특별시 중랑구 면목동 면목로37길 48 ,37.5800447836574,127.083616314045
741,서울특별시 중랑구 면목동 상봉로 59 유영빌딩,37.5919870890501,127.093269794541
742,서울특별시 중랑구 상봉동 동일로120길 59 ,37.5976131575513,127.08328482366
743,서울특별시 중랑구 망우동 봉우재로 213 ,37.5956210181137,127.097250664887
744,서울특별시 중랑구 묵동 중랑천로 332 묵동한국아파트,37.6142212394434,127.073708829348
745,서울특별시 중랑구 망우동 망우로 422 예림아트힐,37.599098404621,127.099556921784
746,서울특별시 중랑구 면목동 사가정로 409 대도빌딩,37.5809898376465,127.090324401855
747,서울특별시 중랑구 면목동 중랑천로 59 ,37.5901489257813,127.072128295898
748,서울특별시 중랑구 상봉동 면목로92길 21 ,37.5955390930176,127.087593078613
749,서울특별시 중랑구 면목동 동일로 492 센타빌딩,37.5741119912954,127.080931386034
750,서울특별시 중랑구 상봉동 망우로 282 ,37.5953535574311,127.084255773942
751,망우본동 583 (중랑숲리가아파트108동),37.6030388950274,127.104684023309
752,서울특별시 중랑구 신내동 신내로21길 116 옹기테마공원 한지체험장,37.6126384533676,127.088777696765
753,서울특별시 중랑구 상봉동 망우로30길 8 ,37.592529296875,127.074157714844
754,서울특별시 중랑구 상봉동 동일로116길 3 ,37.5940781957104,127.081762642358
755,서울특별시 중랑구 면목동 동일로 646 삼성빌딩,37.5882392855962,127.080821593126
756,서울특별시 중랑구 망우동 망우로 503 동부약국,37.6003780141085,127.108195353202
757,면목5동 171-31 (앞 중랑천제방),37.5818260591155,127.078348523666
758,서울특별시 중랑구 중화동 봉화산로26가길 35 ,37.6008293229333,127.085180784437
759,서울특별시 중랑구 면목동 면목로78길 69 ,37.5910186767578,127.091094970703
760,서울특별시 중랑구 면목동 용마산로36길 15 ,37.5717900586081,127.087833687249
761,서울특별시 중랑구 면목동 겸재로27길 79 ,37.5901298522949,127.085456848145
762,서울특별시 중랑구 면목동 상봉로 25 ,37.5880174449598,127.093400996418
763,서울특별시 중랑구 묵동 공릉로12길 37 진주타운,37.616771697998,127.081245422363
764,신내2동 655 (신내9단지 907동 후문),37.611995113389895,127.093066916408
765,서울특별시 중랑구 면목동 동일로 652 ,37.5890824721257,127.080912520283
766,서울특별시 중랑구 면목동 동일로101길 36 금성빌라,37.5898146638391,127.077331451544
767,서울특별시 중랑구 묵동 중랑천로 306 ,37.6125946044922,127.073364257813
768,서울특별시 중랑구 묵동 숙선옹주로 91 신내4단지신내아파트,37.616167746803,127.085800794623
769,서울특별시 중랑구 면목동 겸재로50가길 17 ,37.5873413085938,127.092147827148
770,서울특별시 중랑구 묵동 동일로163길 38 참하우스토리,37.61256027221671,127.074325561523
771,서울특별시 중랑구 면목동 동일로 655 ,37.5892417237933,127.079863505218
772,서울특별시 중랑구 면목동 겸재로9길 36 ,37.58811569213871,127.078590393066
773,서울특별시 중랑구 망우동 용마공원로 36 ,37.5912212545358,127.101384338927
774,서울특별시 중랑구 묵동 중랑역로 197 ,37.6119651794434,127.075881958008
775,서울특별시 중랑구 면목동 면목로 369 평안제일교회,37.5852508544922,127.08895111084
776,서울특별시 중랑구 면목동 면목로 284 HY에코시티빌,37.577719258554,127.08660696780198
777,서울특별시 중랑구 중화동 중랑천로15길 50 ,37.5957983840068,127.070861649579
778,서울특별시 중랑구 면목동 동일로 584 ,37.5829927865664,127.079587333562
779,서울특별시 중랑구 면목동 겸재로50나길 70 산내들빌라,37.5853088809804,127.093085632688
780,서울특별시 중랑구 면목동 면목로76길 7 ,37.5903797256221,127.088725142439
781,서울특별시 중랑구 상봉동 동일로112길 17 용마산4차 홈타운,37.5933609008789,127.081001281738
782,서울특별시 중랑구 중화동 봉화산로 3 ,37.6026199682041,127.07479747137
783,서울특별시 중랑구 묵동 공릉로2가길 28 ,37.613410949707,127.079544067383
784,서울특별시 중랑구 신내동 망우로65길 15 ,37.601390838623,127.09969329834
785,서울특별시 중랑구 묵동 공릉로12가길 15 ,37.6170501708984,127.080039978027
786,서울특별시 중랑구 면목동 면목로27가길 13 ,37.5757228289993,127.083333243212
787,서울특별시 중랑구 면목동 용마산로96길 70 금호아트빌,37.5892639160156,127.101249694824
788,서울특별시 중랑구 신내동 신내역로1길 20 ,37.6135067529324,127.105406845601
789,서울특별시 중랑구 묵동 공릉로12길 26 풀내음아파트,37.6154022216797,127.080062866211
790,서울특별시 중랑구 망우동 봉우재로 198 ,37.594051361084,127.09546661377
791,서울특별시 중랑구 묵동 신내로23길 36 태릉고등학교,37.6183250280236,127.085997687339
792,서울특별시 중랑구 면목동 겸재로30길 15 ,37.5863838195801,127.084632873535
793,서울특별시 중랑구 면목동 봉우재로 24 ,37.589670078192206,127.07650872075
794,서울특별시 중랑구 면목동 겸재로 240 행복오피스텔,37.589322573957205,127.094556480832
795,신내1동 365-2 (능산공원내 관리실옆화단),37.6122403306964,127.097111553287
796,서울특별시 중랑구 면목동 용마산로94길 55 ,37.5894925026305,127.100518200697
797,서울특별시 중랑구 신내동 신내역로 131 ,37.6145706176758,127.112213134766
798,서울특별시 중랑구 묵동 숙선옹주로9길 25 세방아파트,37.615974426269496,127.083778381348
799,서울특별시 중랑구 망우동 망우로67길 20 ,37.6015752594766,127.101250662651
800,서울특별시 중랑구 면목동 동일로100길 74 현대빌라,37.5907554626465,127.083450317383
801,서울특별시 중랑구 상봉동 봉우재로 85 ,37.5920906066895,127.082015991211
802,서울특별시 중랑구 망우동 용마산로100길 40 ,37.590227342325605,127.100494494313
803,서울특별시 중랑구 묵동 공릉로12가길 46 ,37.6179915782299,127.083353426381
804,서울특별시 중랑구 면목동 답십리로81길 131 동서울주택,37.5768017268777,127.084607598887
805,서울특별시 중랑구 망우동 용마산로100길 40 ,37.59030532836911,127.099555969238
806,서울특별시 중랑구 망우동 겸재로61길 64 6차장미빌라,37.59375364921471,127.094102320159
807,서울특별시 중랑구 면목동 봉우재로 142 ,37.5935935974121,127.088157653809
808,서울특별시 중랑구 면목동 봉우재로 136 송림슈퍼,37.5924346145708,127.088165121584
809,서울특별시 중랑구 면목동 겸재로 165 ,37.58886577230261,127.086921583467
810,서울특별시 중랑구 묵동 중랑역로 173 ,37.6097640991211,127.076538085938
811,서울특별시 중랑구 면목동 겸재로49길 29 ,37.590423837407606,127.089113505962
812,서울특별시 중랑구 면목동 겸재로2길 7 ,37.5843086242676,127.076736450195
813,서울특별시 중랑구 신내동 신내로7가길 6 ,37.6025543212891,127.095809936523
814,서울특별시 중랑구 면목동 답십리로81길 135 동서울주택,37.5777435302734,127.08423614502
815,서울특별시 중랑구 중화동 봉화산로26가길 35 ,37.6004638671875,127.085083007813
816,서울특별시 중랑구 면목동 면목로35길 44 ,37.579076168891,127.083604231869
817,서울특별시 중랑구 면목동 면목로37길 13 서울고시원,37.579095140317,127.085857914277
818,서울특별시 중랑구 면목동 면목로 217 북부운수,37.5736427307129,127.083831787109
819,서울특별시 중랑구 면목동 겸재로30가길 20 현대아트빌,37.5858848513399,127.085359949741
820,서울특별시 중랑구 면목동 면목로56가길 38 ,37.5856286183116,127.089070290501
821,서울특별시 중랑구 묵동 동일로157라길 37 ,37.6116218566895,127.074081420898
822,서울특별시 중랑구 면목동 봉우재로 24 ,37.5898847779835,127.076072425556
823,서울특별시 중랑구 중화동 동일로144가길 25 ,37.606662750244105,127.08179473877
824,서울특별시 중랑구 묵동 공릉로12가길 29 ,37.6174201965332,127.081970214844
825,서울특별시 중랑구 중화동 중랑역로 117 ,37.6048203840438,127.077257767265
826,서울특별시 중랑구 묵동 동일로 894 ,37.610706087451895,127.078616946245
827,서울특별시 중랑구 면목동 면목로45길 48 ,37.5823936462402,127.085472106934
828,서울특별시 중랑구 면목동 답십리로75길 36 연세피아노,37.573295593261705,127.081016540527
829,서울특별시 중랑구 묵동 공릉로2길 24 ,37.6101656007254,127.079422941322
830,서울특별시 중랑구 면목동 면목로 264 ,37.5767918373304,127.086513026288
831,신내1동 256-25 (중랑경찰서입구 삼거리),37.6204414367676,127.106246948242
832,서울특별시 중랑구 묵동 공릉로2길 39 금호어울림아파트,37.6122342248024,127.080581476633
833,서울특별시 중랑구 묵동 중랑역로 171 ,37.6088829040527,127.075531005859
834,서울특별시 중랑구 묵동 동일로 879 ,37.60981257922371,127.077637429608
835,서울특별시 중랑구 상봉동 상봉중앙로1다길 21 우정아파트,37.5999145507813,127.088562011719
836,서울특별시 중랑구 면목동 면목로 381 ,37.5866241455078,127.088722229004
837,서울특별시 중랑구 면목동 봉우재로48길 17 ,37.5926967510725,127.092848968332
838,서울특별시 중랑구 묵동 신내로23길 57 원묵중학교,37.6186200204916,127.084133209785
839,서울특별시 중랑구 묵동 동일로169가길 3 ,37.6135711669922,127.074378967285
840,서울특별시 중랑구 면목동 봉우재로 1 ,37.5890951877734,127.073654256493
841,서울특별시 중랑구 신내동 신내로7가길 6 ,37.6029052734375,127.095764160156
842,서울특별시 중랑구 면목동 동일로 606 ,37.5847854614258,127.08065032959
843,서울특별시 중랑구 묵동 동일로157길 48 ,37.6094932556152,127.074584960938
844,서울특별시 중랑구 중화동 동일로136가길 8 반석주택,37.6028709411621,127.0810546875
845,서울특별시 중랑구 면목동 겸재로49길 45 ,37.5919227600098,127.089637756348
846,서울특별시 중랑구 면목동 용마산로 332 ,37.5815257317638,127.094784015901
847,서울특별시 중랑구 망우동 봉우재로71길 68 ,37.5976194022736,127.09651560577
848,서울특별시 중랑구 망우동 양원역로 67 송곡여자중고등학교,37.6062190880045,127.105764403678
849,서울특별시 중랑구 묵동 동일로151길 37 ,37.6079631855553,127.075663472859
850,서울특별시 중랑구 상봉동 봉화산로 115 ,37.60387420654301,127.087478637695
851,서울특별시 중랑구 면목동 동일로102길 21 ,37.590259552002,127.081993103027
852,서울특별시 중랑구 면목동 용마산로94길 64 ,37.5866345224254,127.101137408233
853,망우3동 산 69-508(돌산공원테니스장앞고정1),37.591118048882,127.104139270791
854,서울특별시 중랑구 망우동 용마산로 450 창원빌딩,37.5914922005519,127.098777623978
855,묵2동 385 (현대A 104동 건너편 제방),37.6105880737305,127.072868347168
856,서울특별시 중랑구 망우동 용마공원로10길 18 회인빌라,37.592258630585,127.100453883538
857,서울특별시 중랑구 면목동 답십리로75길 36 연세피아노,37.573299407959,127.081672668457
858,서울특별시 중랑구 상봉동 봉화산로 105 ,37.602571978174,127.085575394542
859,서울특별시 중랑구 묵동 동일로 869 ,37.608249664306605,127.077659606934
860,서울특별시 중랑구 면목동 겸재로24길 45 ,37.584168856958605,127.082698528154
861,서울특별시 중랑구 묵동 공릉로 28 ,37.613292694091705,127.07869720459
862,서울특별시 중랑구 중화동 동일로143길 19 제일프라자,37.6050769882111,127.077196232602
863,서울특별시 중랑구 망우동 망우로62길 48 태건상회,37.596153259277294,127.098587036133
864,서울특별시 중랑구 면목동 용마산로 349 ,37.583183288574205,127.093475341797
865,서울특별시 중랑구 면목동 봉우재로 49 ,37.59122432412521,127.078563065472
866,서울특별시 중랑구 신내동 봉화산로53길 19 ,37.6084399552831,127.097196548116
867,서울특별시 중랑구 신내동 봉화산로 227 ,37.60838149846639,127.098881509483
868,서울특별시 중랑구 망우동 용마공원로 55 ,37.5913103685749,127.103949361823
869,서울특별시 중랑구 묵동 동일로152길 45 석산그린하우스,37.6091461181641,127.080497741699
870,서울특별시 중랑구 상봉동 동일로120길 121 ,37.5982131958008,127.08617401123
871,서울특별시 중랑구 묵동 동일로154길 15 ,37.6090560796181,127.079156528001
872,서울특별시 중랑구 면목동 상봉로 59 유영빌딩,37.5911102294922,127.093963623047
873,서울특별시 중랑구 망우동 겸재로61길 64 6차장미빌라,37.5930714867376,127.094196598492
874,서울특별시 중랑구 묵동 동일로151길 66 ,37.60875308231029,127.074718679792
875,서울특별시 중랑구 상봉동 면목로92다길 16 아트빌라,37.594342011962,127.088267829262
876,서울특별시 중랑구 면목동 겸재로49길 29 ,37.59048461914061,127.089111328125
877,서울특별시 중랑구 면목동 면목로44가길 44 ,37.5839614868164,127.090057373047
878,서울특별시 중랑구 묵동 동일로169가길 3 ,37.6130409240723,127.074501037598
879,신내1동 139 (봉화산정상),37.608669281005895,127.087249755859
880,서울특별시 중랑구 묵동 숙선옹주로 66 묵동 다목적체육관,37.6148910522461,127.084671020508
881,서울특별시 중랑구 망우동 봉우재로 198 ,37.594509124755895,127.095329284668
882,서울특별시 중랑구 망우동 용마공원로 20 ,37.5934516937191,127.100915915377
883,면목4동 산 1-4(용마폭포공원관리소앞),37.573273284847495,127.088926236272
884,서울특별시 중랑구 면목동 용마산로90길 28 서일대학,37.5878804460942,127.09867762836
885,서울특별시 중랑구 면목동 동일로92길 21 하나공인중개사,37.5834866916653,127.081256990489
886,서울특별시 중랑구 망우동 봉우재로 211 ,37.5957641854683,127.096726681112
887,서울특별시 중랑구 면목동 면목로49길 44 청솔하이빌,37.583911895752,127.085052490234
888,서울특별시 중랑구 면목동 중랑천로 36 ,37.588947118389896,127.074342839142
889,서울특별시 중랑구 면목동 면목로44가길 44 ,37.5834312438965,127.090087890625
890,서울특별시 중랑구 상봉동 동일로 690 ,37.5920257568359,127.080924987793
891,서울특별시 중랑구 상봉동 망우로 326 ,37.5976524353027,127.088363647461
892,서울특별시 중랑구 면목동 면목로45길 38 ,37.5823398483303,127.086229548016
893,서울특별시 중랑구 면목동 사가정로 357 슈퍼,37.581253745011104,127.084093838894
894,서울특별시 중랑구 면목동 면목로 286 고려체육관,37.5786819458008,127.086334228516
895,서울특별시 중랑구 묵동 신내로15길 189 중랑구민체육센터,37.6155834184755,127.087263052948
896,서울특별시 중랑구 중화동 동일로139길 54 ,37.6034337472289,127.075696452817
897,서울특별시 중랑구 망우동 망우로68길 43 ,37.597965787019895,127.101838724179
898,서울특별시 중랑구 묵동 공릉로2길 22 ,37.6113741442072,127.079287993159
899,서울특별시 중랑구 면목동 면목로45길 64 ,37.58206939697271,127.084823608398
900,서울특별시 중랑구 면목동 용마산로52길 13 진성빌라,37.578010559082,127.09220123291
901,서울특별시 중랑구 중화동 동일로136가길 8 반석주택,37.602043151855504,127.081146240234
902,서울특별시 중랑구 면목동 용마산로 285 대원칸타빌아파트,37.5787239074707,127.090278625488
903,서울특별시 중랑구 신내동 신내로14길 70 ,37.605064392089794,127.09969329834
904,서울특별시 중랑구 면목동 용마산로 329 ,37.5810585102845,127.092648561544
905,서울특별시 중랑구 중화동 동일로139길 54 ,37.6031008271913,127.075746634614
906,서울특별시 중랑구 면목동 겸재로10길 50 놀이터슈퍼,37.5838238620755,127.078319469364
907,서울특별시 중랑구 상봉동 상봉중앙로 32 ,37.6000823974609,127.087844848633
908,서울특별시 중랑구 면목동 겸재로28길 56 ,37.584602355957,127.083976745605
909,서울특별시 중랑구 면목동 봉우재로 13 ,37.59090109905621,127.074094649507
910,상봉1동 53-2(망우역뒷편#1고정1),37.600706637679,127.092996538115
911,서울특별시 중랑구 면목동 면목로 293 SK텔레콤,37.5798492431641,127.086242675781
912,서울특별시 중랑구 중화동 동일로129길 56 함경상회,37.60094451904301,127.076950073242
913,서울특별시 중랑구 면목동 겸재로18길 33 ,37.5856409679389,127.081958826171
914,서울특별시 중랑구 망우동 망우로68길 65 ,37.5960401914695,127.101853125836
915,서울특별시 중랑구 면목동 답십리로75길 120 ,37.577552795410206,127.080360412598
916,서울특별시 중랑구 묵동 중랑역로 185 ,37.6106305729558,127.076483241098
917,망우본동 578 (동원중학교앞도로축대위),37.60366821289061,127.110061645508
918,서울특별시 중랑구 면목동 동일로 668 ,37.5908660888672,127.080902099609
919,서울특별시 중랑구 면목동 상봉로 59 유영빌딩,37.5911750793457,127.093963623047
920,서울특별시 중랑구 면목동 면목로 272 ,37.5775238006115,127.085025821711
921,서울특별시 중랑구 중화동 동일로 749 (주)한독약품중화동중앙연구소,37.5976142883301,127.07942199707
922,서울특별시 중랑구 면목동 면목천로6길 37 ,37.5772563409962,127.083880077015
923,서울특별시 중랑구 면목동 면목로44가길 19 ,37.5829122805806,127.089408423732
924,서울특별시 중랑구 면목동 답십리로 401 ,37.5712089538574,127.085227966309
925,서울특별시 중랑구 면목동 면목로28길 11 용마부동산,37.5742797851563,127.086944580078
926,신내1동 823 (신내3단지 구릉공원 #3),37.617301940918,127.111206054688
927,서울특별시 중랑구 면목동 면목로35길 34 ,37.5795959204111,127.08446024998
928,서울특별시 중랑구 면목동 면목로44가길 1 광성교회,37.58165097787921,127.089158531453
929,망우본동 236-7 (영란여중 후문 고정1),37.6043934567699,127.105992388989
930,서울특별시 중랑구 중화동 동일로140길 59 ,37.6040725708008,127.082458496094
931,서울특별시 중랑구 중화동 동일로123가길 4 ,37.597251892089794,127.078681945801
932,서울특별시 중랑구 면목동 면목로 220 학림빌딩,37.5728439936751,127.084777608455
933,서울특별시 중랑구 면목동 면목로44가길 44 ,37.5833641648745,127.090630361645
934,서울특별시 중랑구 면목동 면목로55길 24 ,37.584400177002,127.086097717285
935,서울특별시 중랑구 중화동 봉화산로 87 ,37.60292434692379,127.084701538086
936,서울특별시 중랑구 망우동 망우로71길 36 ,37.601646423339794,127.103340148926
937,서울특별시 중랑구 중화동 동일로136가길 33 ,37.6035194396973,127.082969665527
938,서울특별시 중랑구 면목동 겸재로28길 34 ,37.5854721069336,127.083335876465
939,서울특별시 중랑구 면목동 겸재로36길 24 ,37.586277008056605,127.085563659668
940,면목7동 산 50-16(사가정공원안테니스장앞고정1),37.580080415530894,127.095896979842
941,서울특별시 중랑구 면목동 용마산로94길 64 ,37.58716361753071,127.101663525379
942,서울특별시 중랑구 망우동 망우로87길 111 ,37.6044557645885,127.108543248056
943,서울특별시 중랑구 면목동 용마산로94길 55 ,37.58889811240179,127.100540105798
944,서울특별시 중랑구 상봉동 망우로 285 ,37.596996307373,127.084289550781
945,서울특별시 중랑구 면목동 답십리로75길 6 ,37.5725563016961,127.081064783704
946,서울특별시 중랑구 면목동 면목로 284 HY에코시티빌,37.577690124511705,127.086395263672
947,서울특별시 중랑구 면목동 면목로 249 ,37.5759350397296,127.08519312139
948,서울특별시 중랑구 신내동 망우로63길 31 ,37.6010627746582,127.098327636719
949,서울특별시 중랑구 중화동 중랑역로 21 세화당약국,37.59585571289061,127.075263977051
950,서울특별시 중랑구 신내동 신내역로 174 공원관리사무소,37.6171760559082,127.109931945801
951,서울특별시 중랑구 묵동 중랑역로 185 ,37.6102867126465,127.07543182373
952,서울특별시 중랑구 면목동 면목로 311 ,37.58090094117061,127.087837475699
953,서울특별시 중랑구 면목동 답십리로77길 100 ,37.57691574096671,127.08129119873
954,서울특별시 중랑구 면목동 면목로44가길 40 ,37.582066353747294,127.090706188691
955,서울특별시 중랑구 신내동 용마산로125길 50 벽산아파트,37.603778887202,127.100583117101
956,서울특별시 중랑구 망우동 용마산로100길 82 ,37.5890004230568,127.102101812023
957,서울특별시 중랑구 중화동 중랑역로 34 ,37.597343444824205,127.076110839844
958,서울특별시 중랑구 면목동 면목로30나길 35 ,37.5777931213379,127.087707519531
959,서울특별시 중랑구 면목동 용마산로70길 15 생명중앙교회,37.5819667358188,127.095273081088
960,서울특별시 중랑구 면목동 면목로27가길 13 ,37.5757446289063,127.083999633789
961,서울특별시 중랑구 상봉동 동일로126길 107 ,37.5990671027023,127.08649531071
962,서울특별시 중랑구 면목동 겸재로22길 31 ,37.58419036865229,127.081336975098
963,서울특별시 중랑구 망우동 용마산로 509 ,37.5965042114258,127.099533081055
964,서울특별시 중랑구 면목동 겸재로24길 25 ,37.5852851867676,127.08275604248
965,서울특별시 광진구 중곡동 용마산로 186 신우에코밸리,37.5708518912927,127.086839157111
966,서울특별시 중랑구 면목동 동일로 623 아미가 모텔,37.5863986625669,127.079133899429
967,서울특별시 중랑구 면목동 용마산로 271 면목금호어울림아파트,37.5777618511394,127.089327660022
968,서울특별시 중랑구 면목동 답십리로 401 ,37.5710792541504,127.085350036621
969,서울특별시 중랑구 면목동 용마산로94길 23 ,37.588829040527294,127.098686218262
970,서울특별시 중랑구 면목동 면목로44마길 43 ,37.58375930786129,127.092430114746
971,서울특별시 중랑구 망우동 겸재로61길 64 6차장미빌라,37.5936317443848,127.09497833252
972,서울특별시 중랑구 면목동 면목로56가길 38 ,37.5850756687662,127.089767116121
973,서울특별시 중랑구 망우동 망우로73길 77 ,37.6045913696289,127.103538513184
974,서울특별시 중랑구 망우동 망우로58길 55 월드아파트,37.5958671569824,127.094093322754
975,서울특별시 중랑구 면목동 겸재로49길 45 ,37.5910224914551,127.089813232422
976,서울특별시 중랑구 면목동 면목로 217 북부운수,37.5730437385644,127.083195276778
977,서울특별시 중랑구 면목동 면목로 313 문이비인후과의원,37.5800067025244,127.088739218799
978,서울특별시 중랑구 면목동 사가정로 373 성윤빌딩,37.581820810036994,127.086713543336
979,서울특별시 중랑구 면목동 용마산로94길 31 ,37.5890693664551,127.099189758301
980,서울특별시 중랑구 중화동 동일로 799 ,37.60258678156271,127.078331512415
981,서울특별시 중랑구 면목동 봉우재로 34 ,37.5904829848999,127.077783643555
982,서울특별시 중랑구 망우동 봉우재로57길 58 ,37.5979995727539,127.09513092041
983,서울특별시 중랑구 상봉동 면목로 465 ,37.59324264526371,127.085693359375
984,서울특별시 중랑구 중화동 봉화산로27가길 29 ,37.6036643981934,127.085731506348
985,서울특별시 중랑구 면목동 겸재로 202 ,37.5884208679199,127.090187072754
986,서울특별시 중랑구 상봉동 동일로112길 21 ,37.5930798245936,127.082423791143
987,서울특별시 중랑구 면목동 동일로 622 ,37.5868530273438,127.080230712891
988,서울특별시 중랑구 면목동 겸재로24길 45 ,37.584707111015504,127.082063073933
989,서울특별시 중랑구 면목동 겸재로24길 25 ,37.58566110790501,127.082026064398
990,서울특별시 중랑구 상봉동 동일로112길 54 ,37.593017578125,127.084976196289
991,서울특별시 중랑구 중화동 봉화산로 79 광진연립,37.6027374267578,127.083488464355
992,서울특별시 중랑구 면목동 동일로100길 100 ,37.5915451049805,127.084922790527
993,서울특별시 중랑구 망우동 송림길 124 개나리아파트,37.6055145263672,127.105033874512
994,서울특별시 중랑구 면목동 면목로 360 ,37.584743499755895,127.088340759277
995,서울특별시 중랑구 망우동 용마산로 472 미래하이츠,37.5936431884766,127.099586486816
996,상봉1동 484-1 (신현상상어린이공원),37.60343182330229,127.089861406742
997,서울특별시 중랑구 면목동 겸재로48길 44 ,37.5865325927734,127.090194702148
998,서울특별시 중랑구 망우동 용마공원로 29 ,37.5936122906013,127.102117753096
999,서울특별시 중랑구 면목동 동일로 623 아미가 모텔,37.5862236022949,127.079734802246
1000,서울특별시 중랑구 면목동 겸재로28길 34 ,37.5855509306048,127.083948081591
1001,서울특별시 중랑구 망우동 양원역로 17 ,37.60274505615229,127.107521057129
1002,서울특별시 중랑구 묵동 동일로143길 62 ,37.6056518554688,127.074546813965
1003,서울특별시 중랑구 면목동 동일로 611 ,37.58543014526371,127.079040527344
1004,서울특별시 중랑구 망우동 겸재로61길 50 ,37.5922038710238,127.09412526118
1005,서울특별시 중랑구 면목동 면목로30길 19 퍼플하우스,37.5766105651855,127.087829589844
1006,서울특별시 중랑구 면목동 용마산로52길 13 진성빌라,37.578176817706,127.092014644023
1007,서울특별시 중랑구 면목동 용마산로36길 15 ,37.571764761476295,127.087182424557
1008,서울특별시 중랑구 면목동 면목로44다길 26 무진빌딩,37.5820001133396,127.091567820978
1009,서울특별시 중랑구 망우동 망우로68길 43 ,37.5974975913362,127.101043732092
1010,신내2동 산 123-1 (봉수대공원 잔디밭),37.6079186500052,127.092303843954
1011,서울특별시 중랑구 상봉동 봉화산로48길 62 건영아파트,37.6032867431641,127.093246459961
1012,서울특별시 중랑구 면목동 면목로38가길 42 ,37.5796198044069,127.089900341402
1013,서울특별시 중랑구 묵동 숙선옹주로 66 묵동 다목적체육관,37.6147308349609,127.084342956543
1014,서울특별시 중랑구 묵동 공릉로2길 56 현대화이트빌,37.61122477707521,127.081352106152
1015,서울특별시 중랑구 중화동 동일로144가길 11 ,37.605682373046896,127.081901550293
1016,서울특별시 중랑구 중화동 동일로140길 59 ,37.604560557607606,127.082133678516
1017,신내1동 315-5 (서울의료원 앞 신내어울공원),37.6139299469005,127.098304339666
1018,신내1동 425-1(고정1),37.6049680540609,127.100657044259
1019,서울특별시 중랑구 면목동 겸재로49길 22 ,37.59009933471671,127.090209960938
1020,서울특별시 중랑구 묵동 중랑역로 152 ,37.6075286865234,127.077346801758
1021,서울특별시 중랑구 면목동 면목로84가길 4 ,37.591033935546896,127.088729858398
1022,서울특별시 중랑구 중화동 중랑천로 130 ,37.597682952880895,127.07283782959
1023,서울특별시 중랑구 망우동 양원역로 53 신일연립,37.6058585907254,127.106215120788
1024,서울특별시 중랑구 망우동 용마공원로 58 ,37.5909349671159,127.103978703481
1025,서울특별시 중랑구 중화동 동일로138길 5 ,37.6042815956963,127.080247400587
1026,서울특별시 중랑구 면목동 겸재로54가길 3 부영벨리스,37.586940842863,127.091609053501
1027,서울특별시 중랑구 중화동 중랑역로 16 ,37.5965232849121,127.076385498047
1028,서울특별시 중랑구 면목동 겸재로50가길 17 ,37.5877000773622,127.092693285777
1029,서울특별시 중랑구 묵동 중랑역로 141 ,37.6066272704935,127.076690669855
1030,서울특별시 중랑구 면목동 겸재로2길 7 ,37.584542511204,127.076087493061
1031,서울특별시 중랑구 면목동 겸재로42길 22 ,37.5871145685808,127.089604686743
1032,서울특별시 중랑구 중화동 동일로136가길 13 ,37.6030389015947,127.08199886619
1033,서울특별시 중랑구 면목동 겸재로48길 27 장호아트맨션,37.5876536234049,127.090054706168
1034,서울특별시 중랑구 면목동 면목로44가길 44 ,37.583915927014296,127.090518932664
1035,서울특별시 중랑구 면목동 용마산로 409 아이비고시원,37.5882339477539,127.095306396484
1036,서울특별시 중랑구 면목동 용마산로60가길 23 ,37.578575134277294,127.09423828125
1037,서울특별시 중랑구 망우동 용마공원로 29 ,37.5938018579126,127.102739682322
1038,신내2동 784-1 (신현초등학교 후문),37.6050109863281,127.093864440918
1039,면목4동 산 1-4 (용마폭포공원-폭포앞),37.572998046875,127.09154510498
1040,서울특별시 중랑구 면목동 사가정로 374 킴스타워,37.5805107320333,127.086416527705
1041,서울특별시 중랑구 면목동 사가정로72길 47 중랑문화체육관,37.5799984777956,127.095519459348
1042,서울특별시 중랑구 면목동 면목로 406 ,37.5886268615723,127.087226867676
1043,서울특별시 중랑구 면목동 동일로 569 ,37.581659660814,127.079340053165
1044,서울특별시 중랑구 면목동 동일로100길 74 현대빌라,37.59004974365229,127.083358764648
1045,서울특별시 중랑구 면목동 동일로 646 삼성빌딩,37.58867645263671,127.080924987793
1046,서울특별시 중랑구 망우동 봉우재로58길 13 ,37.5936317443848,127.095153808594
1047,서울특별시 광진구 중곡동 답십리로 392 ,37.571782415262206,127.084122680378
1048,서울특별시 중랑구 면목동 답십리로77길 118 ,37.5778244349565,127.0824077467
1049,서울특별시 중랑구 중화동 봉화산로27가길 13 ,37.6038360595703,127.084922790527
1050,서울특별시 중랑구 신내동 신내로 45 해성빌딩,37.6036649969589,127.095481218337
1051,서울특별시 중랑구 신내동 신내로21길 104 ,37.6130298566821,127.088795875212
1052,묵1동 13-1 (원묵어린이공원),37.6166877746582,127.084854125977
1053,서울특별시 중랑구 면목동 면목로30길 19 퍼플하우스,37.576454162597706,127.087547302246
1054,서울특별시 중랑구 망우동 망우로71가길 14 ,37.603523254394496,127.10334777832
1055,서울특별시 중랑구 상봉동 면목로 472 ,37.59455835478929,127.086781673132
1056,서울특별시 중랑구 망우동 봉우재로57가길 3 ,37.5952195800684,127.095075008051
1057,서울특별시 중랑구 면목동 봉우재로 162 ,37.593334197998,127.091918945313
1058,서울특별시 중랑구 중화동 중랑역로3길 44 ,37.5944876488569,127.07325665659
1059,서울특별시 중랑구 상봉동 동일로116길 3 ,37.594753265380895,127.081970214844
1060,서울특별시 중랑구 중화동 중랑천로 113 전춘하이츠빌라,37.5950698852539,127.071022033691
1061,서울특별시 중랑구 망우동 용마산로 472 미래하이츠,37.5935388595256,127.099833014166
1062,서울특별시 중랑구 상봉동 동일로110길 13 ,37.5928916931152,127.081497192383
1063,서울특별시 중랑구 상봉동 망우로48길 20 ,37.5950546264648,127.088035583496
1064,서울특별시 중랑구 면목동 면목로44가길 19 ,37.582198793642895,127.089235831158
1065,서울특별시 중랑구 면목동 사가정로 358 ,37.5805647384307,127.08497034449
1066,서울특별시 중랑구 면목동 봉우재로 126 ,37.5921058654785,127.087936401367
1067,서울특별시 중랑구 망우동 망우로 454 ,37.600783799763,127.102027474031
1068,서울특별시 중랑구 면목동 겸재로3길 50 서부경로당,37.5884399414063,127.076553344727
1069,서울특별시 중랑구 상봉동 봉우재로 173 ,37.5946273803711,127.092582702637
1070,서울특별시 중랑구 면목동 겸재로 91 포시즌,37.5869850892857,127.078285185825
1071,서울특별시 중랑구 상봉동 망우로 285 ,37.5963554382324,127.084014892578
1072,서울특별시 중랑구 중화동 중랑역로 9 중랑역사,37.595287825641705,127.07668407238
1073,서울특별시 중랑구 망우동 망우로 404 신한은행,37.598505345433296,127.097514214306
1074,서울특별시 중랑구 면목동 용마산로 325 두드림교회,37.5815987964005,127.093597854228
1075,서울특별시 중랑구 중화동 중랑천로29길 41 ,37.596330005477,127.070905107556
1076,서울특별시 중랑구 면목동 용마산로 217 중랑청소년수련관,37.573825836181605,127.086990356445
1077,남대문로25-13 빈스브로앞,37.561861,127.978257
1078,서울특별시 중구 신당동 동호로8가길 45 ,37.5541849999999,127.014058
1079,서울특별시 중구 저동1가 삼일대로 336 가로판매대39,37.564695,126.987103
1080,서울특별시 중구 신당동 퇴계로 426 ,37.5653629999999,127.019282
1081,서울특별시 중구 을지로4가 창경궁로 53 ,37.567236,126.997832
1082,서울특별시 중구 신당동 다산로36가길 26 ,37.56058529999999,127.0206778
1083,서울특별시 중구 충무로5가 퇴계로 265 ,37.5633279245731,127.001709043979
1084,서울특별시 마포구 아현동 환일길 67 청보파크빌,37.5526089999999,126.962871
1085,서울특별시 중구 황학동 다산로46길 35 ,37.5677,127.018120999999
1086,서울특별시 중구 을지로3가 수표로 48 ,37.5655849999999,126.990527
1087,서울특별시 중구 신당동 다산로34길 43 ,37.5617639999999,127.017888
1088,서울특별시 중구 필동3가 서애로3길 10 ,37.559724,126.9975
1089,서울특별시 중구 남산동2가 소파로 91 ,37.557512,126.985225
1090,서울특별시 중구 신당동 다산로 174 청구공영주차장,37.5599139999999,127.013955999999
1091,서울특별시 중구 신당동 청구로 70 신진빌딩,37.5605467999999,127.0149722
1092,서울특별시 중구 남산동3가 소파로 131 남산빌딩,37.559781,126.987521
1093,서울특별시 중구 저동1가 삼일대로 336 가로판매대39,37.564796,126.987226
1094,서울특별시 중구 신당동 다산로22길 29 ,37.5573539999999,127.014617
1095,서울특별시 중구 만리동1가 손기정로 101 손기정공원,37.556818,126.96562
1096,서울특별시 중구 신당동 동호로10길 8 ,37.554243,127.012159999999
1097,서울특별시 성동구 옥수동 매봉18길 1 구립금옥어린이집,37.549562,127.012174
1098,서울특별시 중구 회현동1가 퇴계로12가길 23 회현어린이집,37.5568639999999,126.980859
1099,서울특별시 중구 신당동 동호로 193 ,37.554732,127.009531
1100,서울특별시 중구 회현동1가 퇴계로8길 86 ,37.5553209999999,126.980929
1101,서울특별시 중구 회현동1가 퇴계로12가길 23 회현어린이집,37.5567009999999,126.980211
1102,서울특별시 중구 남대문로5가 후암로58길 13 ,37.5546089999999,126.974119
1103,서울특별시 중구 신당동 다산로38길 23 ,37.563813,127.017149
1104,서울특별시 중구 회현동1가 퇴계로12길 39 회동장여관,37.55742554431811,126.981962621212
1105,서울특별시 성동구 옥수동 동호로5길 131 서울방송고등학교,37.548042,127.010017
1106,서울특별시 중구 회현동1가 소공로3길 26 ,37.556742,126.982532
1107,서울특별시 중구 장충동1가 장충단로8길 45 ,37.56277,127.009454
1108,서울특별시 중구 신당동 동호로8가길 45 ,37.554586,127.01439
1109,서울특별시 중구 주교동 청계천로 194 ,37.568711,126.999045
1110,서울특별시 중구 신당동 다산로5길 9 ,37.5492229999999,127.006005
1111,서울특별시 중구 신당동 다산로 61 해강약국,37.5509289999999,127.007092
1112,서울특별시 중구 정동 서소문로 89 삼정 아트테라스 정동,37.563526,126.9712644
1113,서울특별시 중구 신당동 다산로38길 45 ,37.5623069999999,127.018133
1114,서울특별시 중구 충무로3가 수표로 22 ,37.563411,126.991795999999
1115,서울특별시 중구 장충동2가 동호로 310 태광산업,37.5624370693307,127.002411782741
1116,서울특별시 중구 저동1가 삼일대로 336 가로판매대39,37.5647179999999,126.987226
1117,서울특별시 중구 정동 정동길 21 정동빌딩,37.56792,126.971639999999
1118,서울특별시 중구 신당동 동호로 218 ,37.557855,127.009496
1119,서울특별시 중구 서소문동 서소문로11길 14 ,37.563811,126.97295
1120,서울특별시 중구 신당동 다산로 149 ,37.557296,127.01123
1121,서울특별시 중구 신당동 동호로 177 ,37.5539449999999,127.01066000000002
1122,서울특별시 중구 신당동 동호로11바길 33 타워빌라,37.549815,127.00588
1123,서울특별시 중구 장충동2가 동호로11차길 24 ,37.552165,127.004883
1124,서울특별시 서대문구 미근동 통일로 97 경찰청,37.563955,126.968678999999
1125,서울특별시 중구 신당동 동호로 191 선일빌딩,37.5553999999999,127.010369
1126,서울특별시 중구 신당동 다산로5길 9 ,37.549812,127.006844
1127,서울특별시 중구 신당동 청구로 77 청구역 56호선,37.5605639999999,127.013459999999
1128,서울특별시 종로구 신문로2가 새문안로2길 10 ,37.5683769999999,126.971341
1129,서울특별시 중구 중림동 청파로 429 ,37.5588309999999,126.968339
1130,서울특별시 중구 묵정동 서애로1길 26 ,37.560859,126.999945
1131,서울특별시 중구 회현동1가 퇴계로12길 39 회동장여관,37.557825,126.981421
1132,서울특별시 중구 충무로5가 퇴계로 265 충무창업큐브,37.5621849999999,127.001161
1133,서울특별시 중구 신당동 다산로8길 38 ,37.551676,127.011536
1134,서울특별시 중구 신당동 다산로 149 ,37.5579469999999,127.011649
1135,서울특별시 중구 황학동 난계로15길 16 ,37.569127,127.022259
1136,서울특별시 중구 장충동2가 동호로11차길 24 ,37.552379,127.004797999999
1137,서울특별시 중구 신당동 다산로 137 ,37.556147,127.01148
1138,서울특별시 중구 신당동 동호로17길 123 ,37.553508,127.005082
1139,서울특별시 중구 신당동 다산로36가길 2 ,37.560648,127.01869
1140,서울특별시 중구 신당동 동호로8가길 27 에덴빌라,37.55326,127.014112999999
1141,서울특별시 중구 신당동 다산로31길 50 ,37.563958,127.01298
1142,서울특별시 중구 남산동2가 퇴계로20가길 30 ,37.5585809999999,126.986602
1143,서울특별시 중구 다동 남대문로9길 40 센터플레이스(Center Place),37.5679859999999,126.980421
1144,서울특별시 중구 인현동2가 마른내로 74 ,37.564722,126.996655
1145,서울특별시 중구 회현동1가 소공로3길 45 ,37.556834,126.981412
1146,서울특별시 중구 신당동 다산로 269 광희초등학교,37.567152,127.015866
1147,서울특별시 중구 저동1가 삼일대로 336 가로판매대39,37.5647949999999,126.987117
1148,서울특별시 중구 신당동 퇴계로88가길 48 ,37.5621117663125,127.023048698902
1149,서울특별시 중구 신당동 다산로24가길 7 ,37.556481,127.01619
1150,서울특별시 중구 신당동 동호로8길 42 ,37.552168,127.013915999999
1151,서울특별시 중구 정동 서소문로 89 삼정 아트테라스 정동,37.563422,126.971315
1152,서울특별시 중구 신당동 동호로11마길 32 푸른마을,37.5500529999999,127.005762
1153,서울특별시 중구 중림동 서소문로2길 25 ,37.557191,126.963249
1154,서울특별시 중구 신당동 매봉18길 109 동산초등학교,37.555973265975695,127.017386555671
1155,서울특별시 중구 신당동 다산로5길 9 ,37.5496989999999,127.006626999999
1156,서울특별시 중구 신당동 동호로11라길 15 ,37.5511619999999,127.005731999999
1157,서울특별시 중구 다동 남대문로9길 40 센터플레이스(Center Place),37.5679319999999,126.980031
1158,서울특별시 중구 신당동 다산로42길 43 ,37.5646259999999,127.019631
1159,서울특별시 중구 신당동 다산로44길 64 ,37.564435,127.020895
1160,서울특별시 중구 신당동 왕십리로 397 ,37.56414,127.025857
1161,서울특별시 중구 흥인동 마장로 66 ,37.567439,127.017971
1162,서울특별시 중구 신당동 다산로12길 29 석산노인정,37.555576,127.013793
1163,서울특별시 중구 을지로3가 수표로 48 ,37.565547,126.990990999999
1164,서울특별시 중구 신당동 다산로24가길 1 ,37.5573339999999,127.016577
1165,다산로 24길 23 맞은편 청구동마을마당,37.5558589999999,127.016294
1166,서울특별시 중구 신당동 다산로 165 ,37.559944,127.012516
1167,서울특별시 중구 충무로5가 서애로 12 고려빌딩,37.5611279999999,126.997252
1168,서울특별시 중구 신당동 다산로33가길 11 ,37.563383,127.014276
1169,서울특별시 중구 신당동 동호로15길 42 창원하이츠,37.554279,127.008593
1170,서울특별시 중구 묵정동 동호로27길 38 ,37.5614547774546,127.002336680889
1171,서울특별시 중구 인현동2가 을지로20길 25 ,37.5652648069681,126.995352208613
1172,서울특별시 중구 광희동2가 퇴계로 326 ,37.56387,127.008011999999
1173,서울특별시 중구 신당동 동호로8라길 3 가나다빌라,37.5533659999999,127.015187
1174,서울특별시 중구 인현동2가 마른내로 74 ,37.5642953090125,126.996848881244
1175,서울특별시 중구 회현동1가 소파로 83 ,37.556925,126.984112
1176,서울특별시 중구 신당동 동호로5길 2 ,37.552819,127.012604
1177,서울특별시 중구 남산동2가 소공로6길 32 ,37.558953,126.985902
1178,서울특별시 중구 필동2가 필동로 42 ,37.5578229999999,126.995394
1179,서울특별시 중구 신당동 다산로36가길 2 ,37.560174,127.018255999999
1180,서울특별시 중구 신당동 동호로8나길 38 신당힐빌리지,37.5514986,127.01335120000002
1181,서울특별시 중구 장충동2가 동호로27길 11 ,37.559854,127.00221100000002
1182,서울특별시 중구 신당동 다산로 232 창원빌딩,37.563028139153296,127.01679110527
1183,다산로24길 77 옆 응봉삼성공원,37.557572,127.017005
1184,서울특별시 중구 광희동1가 동호로34길 15 화신여관,37.5652818155914,127.003186941146
1185,서울특별시 중구 황학동 다산로46길 35 ,37.5673409999999,127.018283
1186,서울특별시 중구 다동 청계천로 24 한미빌딩,37.5681629999999,126.980836
1187,서울특별시 중구 봉래동2가 통일로 21 서울역앞우체국,37.5574893333474,126.971535
1188,서울특별시 중구 장충동2가 서애로3길 40 ,37.558967,126.9983381
1189,서울특별시 종로구 관철동 청계천로 57 ,37.568213,126.984877
1190,서울특별시 중구 신당동 동호로8길 54 ,37.5520369999999,127.014082
1191,서울특별시 중구 필동1가 퇴계로 184 스타빌딩,37.560025,126.992517
1192,서울특별시 중구 신당동 난계로6길 8 무학봉 근린공원 다목적 체력단련장,37.562486,127.024522
1193,서울특별시 중구 회현동1가 퇴계로12가길 23 회현어린이집,37.5567769999999,126.98058
1194,서울특별시 중구 태평로1가 세종대로 136 파이낸스빌딩,37.568953,126.977344
1195,서울특별시 중구 광희동2가 퇴계로 326 ,37.5639869999999,127.008982
1196,서울특별시 중구 신당동 다산로36가길 2 ,37.5600579999999,127.018157
1197,서울특별시 중구 신당동 다산로36가길 26 지산빌딩,37.5616849999999,127.020398
1198,서울특별시 중구 황학동 퇴계로87길 35 ,37.5675354238506,127.020951211452
1199,서울특별시 중구 황학동 다산로46길 35 ,37.5672939999999,127.018866
1200,서울특별시 중구 신당동 퇴계로88가길 48 ,37.5621270999999,127.022104899998
1201,만리재로37길 59-3 전신주 옆,37.556818,127.96562
1202,서울특별시 중구 필동2가 필동로 42 ,37.557949,126.995473
1203,서울특별시 중구 신당동 다산로40길 33 ,37.5638939999999,127.018922
1204,서울특별시 중구 충무로5가 퇴계로45길 16 진영빌딩,37.5637809999999,126.999448
1205,서울특별시 중구 충무로4가 창경궁로1길 6 ,37.5635729999999,126.997208
1206,서울특별시 중구 신당동 청구로 65 ,37.559668,127.014118999999
1207,서울특별시 중구 신당동 다산로36가길 26 ,37.560748880057,127.02081978321002
1208,서울특별시 중구 신당동 다산로24가길 7 ,37.5561289999999,127.016358
1209,서울특별시 중구 신당동 동호로17길 107 ,37.5544239999999,127.004994999999
1210,서울특별시 중구 쌍림동 퇴계로 300 ,37.5632960325645,127.005684077739
1211,서울특별시 중구 충무로5가 동호로31길 31 ,37.56389,127.000153
1212,서울특별시 중구 회현동1가 소공로3길 45 ,37.5560139999999,126.981874
1213,서울특별시 중구 신당동 다산로38길 61 ,37.56297073,127.01988101
1214,서울특별시 중구 신당동 다산로28가길 24 ,37.5589319999999,127.015013999999
1215,서울특별시 중구 저동1가 삼일대로 330 평화빌딩,37.5646419999999,126.988488
1216,서울특별시 중구 신당동 다산로40길 33 ,37.563662,127.018424
1217,서울특별시 중구 장충동2가 동호로25길 26 청우빌라,37.559231,127.001108
1218,서울특별시 중구 순화동 서소문로 81 혜명빌딩,37.562317,126.97044
1219,서울특별시 중구 신당동 동호로11나길 43 한서빌라,37.5520989999999,127.005081
1220,서울특별시 중구 신당동 난계로6길 8 무학봉 근린공원 다목적 체력단련장,37.5625459999999,127.024957
1221,서울특별시 중구 장충동2가 동호로25가길 15 장충동빌리지,37.5589607,127.001423499999
1222,서울특별시 중구 신당동 다산로10길 10 ,37.5526390850477,127.010756134986
1223,서울특별시 중구 신당동 퇴계로88가길 48 ,37.562609,127.022938999999
1224,서울특별시 중구 장충동2가 동호로30길 20 ,37.5611145867726,127.004254460334
1225,서울특별시 중구 신당동 다산로 75 ,37.5516332728665,127.007465064524
1226,서울특별시 중구 신당동 다산로10길 10 ,37.552992072997,127.010206282138
1227,서울특별시 중구 신당동 다산로16길 43 ,37.5558029999999,127.014
1228,서울특별시 중구 광희동1가 마른내로 153 ,37.564287,127.005003
1229,서울특별시 중구 신당동 동호로11라길 35 ,37.5511869999999,127.00453
1230,서울특별시 중구 신당동 퇴계로 426 ,37.5650713336031,127.019717395305
1231,서울특별시 중구 남산동2가 퇴계로20가길 8 ,37.559598,126.986403999999
1232,난계로 6길 8 무학봉근린공원,37.562913,127.025051
1233,서울특별시 중구 남학동 퇴계로 170 중부세무서,37.5601514134795,126.990151405334
1234,서울특별시 중구 장충동2가 퇴계로52길 22 ,37.56244770012431,127.003878951072
1235,서울특별시 중구 신당동 다산로32길 13 ,37.5610529270452,127.015012800693
1236,서울특별시 중구 신당동 퇴계로 364 ,37.564289,127.012399
1237,서울특별시 마포구 아현동 환일길 67 청보파크빌,37.552573,126.962836
1238,서울특별시 중구 을지로4가 을지로 189 동원빌딩,37.5677969230357,126.999096572399
1239,서울특별시 중구 다동 청계천로 24 한미빌딩,37.5680699999999,126.980653
1240,서울특별시 중구 필동2가 필동로 34 삼경하이빌,37.558647,126.995425999999
1241,서울특별시 중구 장충동2가 동호로25가길 45 영웅타운,37.5590819150798,127.000418901443
1242,만리재로37길 59-3 전신주 옆,37.556818,128.96562
1243,서울특별시 중구 묵정동 서애로1길 35 동국빌딩,37.561631250759,127.000217735767
1244,서울특별시 중구 회현동1가 퇴계로10길 20 ,37.5571339999999,126.980757
1245,서울특별시 중구 신당동 동호로11나길 43 한서빌라,37.552579,127.005797
1246,서울특별시 중구 을지로6가 장충단로 251 ,37.567176126725,127.008285820484
1247,서울특별시 중구 충무로5가 서애로 12 고려빌딩,37.56150436,126.9979324
1248,서울특별시 중구 필동2가 필동로 66 ,37.555046174516704,126.995612382888
1249,서울특별시 중구 흥인동 마장로 68 ,37.5681269999999,127.017825
1250,서울특별시 중구 장충동2가 동호로30길 20 ,37.5611145867725,127.004254460334
1251,서울특별시 중구 장충동2가 동호로 310 태광산업,37.5624370693306,127.002411782741
1252,서울특별시 중구 다동 남대문로9길 40 센터플레이스(Center Place),37.567307940073,126.980543732643
1253,서울특별시 중구 신당동 왕십리로 415 ,37.5645440629808,127.023799717426
1254,서울특별시 중구 충무로5가 동호로31길 31 ,37.5636659790248,127.000440359115
1255,서울특별시 중구 남창동 퇴계로6가길 6 ,37.55637,126.9784
1256,서울특별시 중구 필동2가 필동로 52 크로바빌딩,37.556522,126.995656999999
1257,서울특별시 중구 신당동 다산로 211 광고자재백화점,37.562305,127.014304999999
1258,서울특별시 중구 만리동1가 만리재로 197 ,37.55556,126.9673
1259,서울특별시 중구 신당동 다산로40길 33 ,37.5635128979538,127.018295824527
1260,서울특별시 중구 남대문로5가 소월로2길 12 제일빌딩,37.554195,126.976477
1261,서울특별시 중구 필동2가 필동로8길 22 ,37.55533218,126.9945908
1262,서울특별시 중구 광희동2가 퇴계로 325 백운장여관,37.5648927423587,127.008095383644
1263,서울특별시 중구 입정동 을지로15길 16 ,37.56710052,126.9945908
1264,서울특별시 중구 신당동 다산로36가길 26 ,37.5607488800569,127.02081978321002
1265,서울특별시 중구 신당동 다산로 236 ,37.5648587249301,127.01684474945
1266,서울특별시 중구 회현동1가 소공로6가길 23 ,37.55724,126.9844
1267,서울특별시 중구 필동3가 필동로3길 22 ,37.55626,126.9965
1268,서울특별시 중구 인현동2가 창경궁로 29 선일금고,37.565570961595895,126.998989284038
1269,서울특별시 중구 봉래동2가 통일로 21 서울역앞우체국,37.557375,126.971766
1270,서울특별시 중구 충무로5가 퇴계로45길 16 진영빌딩,37.5630175084424,126.999107301235
1271,서울특별시 중구 필동1가 퇴계로 179 ,37.5616699999999,126.9916
1272,서울특별시 중구 만리동1가 만리재로 207 ,37.556562260750205,126.967628
1273,서울특별시 중구 충무로4가 퇴계로 211 일흥빌딩주차장,37.5628552145174,126.995188593864
1274,서울특별시 중구 광희동1가 마른내로 159 ,37.5657856942994,127.005579471588
1275,서울특별시 중구 필동2가 필동로 30 ,37.558543970718105,126.996945440769
1276,서울특별시 중구 신당동 다산로24가길 3 ,37.55763626,127.0156631
1277,서울특별시 중구 광희동1가 마른내로 159 ,37.565587970149394,127.00663357973
1278,서울특별시 중구 신당동 다산로31길 26 ,37.562777253974,127.013242542743
1279,서울특별시 중구 신당동 동호로17길 123 ,37.55398,127.0059
1280,서울특별시 중구 신당동 다산로42길 72 ,37.5637892941034,127.020441591739
1281,서울특별시 중구 필동2가 필동로8길 49 ,37.555852064307295,126.993718743324
1282,서울특별시 중구 장충동1가 장충단로8가길 1 동림38빌딩,37.56287384,127.0086746
1283,서울특별시 중구 남창동 소월로1길 10 ,37.556229,126.977279
1284,서울특별시 중구 충무로5가 동호로31길 31 ,37.56310654,127.0005264
1285,서울특별시 중구 광희동2가 퇴계로 336 ,37.5633853301541,127.009010016918
1286,서울특별시 중구 신당동 청구로 128 ,37.5637042492435,127.010954618453
1287,서울특별시 중구 황학동 마장로 75 ,37.56818389,127.01834106
1288,서울특별시 중구 신당동 다산로24가길 7 ,37.5564809999999,127.016189999999
1289,서울특별시 중구 광희동1가 마른내로 159 ,37.5654519016123,127.005651891231
1290,서울특별시 중구 필동2가 필동로 42 ,37.5577529940895,126.995641887187
1291,서울특별시 중구 필동3가 필동로 35 ,37.55791473,126.9964828
1292,서울특별시 중구 필동2가 퇴계로36나길 27 풍경,37.5566175452194,126.993517577648
1293,서울특별시 중구 신당동 퇴계로 356 ,37.56412,127.0114
1294,서울특별시 중구 충무로4가 퇴계로 211 일흥빌딩주차장,37.5623201305007,126.995328068733
1295,서울특별시 중구 충무로4가 퇴계로 209 ,37.561348468033295,126.995392441749
1296,서울특별시 중구 필동3가 필동로 35 ,37.55714035,126.9964523
1297,서울특별시 중구 수표동 수표로 72 ,37.56763,126.9909
1298,서울특별시 중구 을지로3가 을지로16길 5 ,37.565462531975705,126.994528770446
1299,서울특별시 중구 신당동 청구로 77 청구역 56호선,37.560929607437295,127.013312280178
1300,서울특별시 중구 신당동 다산로 165 ,37.55982971,127.0121765
1301,서울특별시 중구 신당동 매봉18길 109 동산초등학교,37.5559732659757,127.017386555671
1302,서울특별시 중구 광희동1가 마른내로 145 ,37.564365470472296,127.00453877449
1303,서울특별시 중구 을지로6가 장충단로 249 ,37.567114472014495,127.007081508636
1304,서울특별시 중구 신당동 다산로36길 109 현대아파트,37.55925,127.0209
1305,서울특별시 중구 광희동1가 마른내로 147 ,37.56504369451,127.004058659075
1306,서울특별시 중구 신당동 다산로42길 110 ,37.5630175084424,127.022850215435
1307,서울특별시 중구 충무로5가 마른내로12길 7 ,37.5644164969469,127.000375986099
1308,서울특별시 중구 중림동 중림로 45 ,37.55751,126.968089
1309,서울특별시 중구 신당동 다산로20길 53 ,37.556097,127.015566
1310,서울특별시 중구 필동2가 퇴계로 210 ,37.56058970000001,126.9953635
1311,서울특별시 중구 신당동 퇴계로88가길 48 ,37.5621117663124,127.023048698902
1312,서울특별시 중구 신당동 청구로 91 ,37.56091685022479,127.011761963366
1313,서울특별시 중구 을지로4가 을지로 159 ,37.566991162440296,126.99645191431
1314,서울특별시 중구 필동1가 수표로2길 28 ,37.5621691728307,126.992264986037
1315,서울특별시 중구 신당동 다산로29길 46 ,37.5626220449232,127.011896073817
1316,서울특별시 중구 을지로6가 장충단로 275 두산타워빌딩,37.5689066898498,127.009377479553
1317,서울특별시 중구 장충동1가 장충단로 210 민일치과,37.56337044723,127.007558941841
1318,서울특별시 중구 신당동 다산로36길 109 현대아파트,37.5595,127.0206
1319,서울특별시 중구 충무로2가 명동10길 35 ,37.562749614029705,126.985363662241
1320,서울특별시 중구 남창동 퇴계로6가길 6 ,37.556711103458206,126.978662
1321,서울특별시 중구 순화동 통일로 40 ,37.5594922810921,126.971746087074
1322,서울특별시 중구 남대문로5가 통일로 22 ,37.5586199999999,126.972749233245
1323,서울특별시 중구 신당동 다산로40길 55 ,37.5631705905315,127.019191682338
1324,서울특별시 중구 충무로5가 퇴계로45길 16 진영빌딩,37.56395,126.999
1325,서울특별시 중구 신당동 퇴계로 364 ,37.5646099720126,127.012942135334
1326,서울특별시 중구 신당동 다산로42길 87 ,37.5636425916594,127.02182829379998
1327,서울특별시 중구 장충동1가 장충단로 198 써미트호텔,37.5623350136347,127.006000578403
1328,서울특별시 중구 예장동 소파로4길 27 오피스웨이,37.5586013799853,126.988528668879
1329,서울특별시 중구 신당동 다산로42길 72 ,37.56343423116979,127.020744681358
1330,서울특별시 중구 을지로6가 장충단로 249 ,37.5678968452461,127.007741332054
1331,서울특별시 중구 을지로6가 장충단로 251 ,37.5677756629736,127.008682787418
1332,서울특별시 중구 광희동2가 퇴계로 325 백운장여관,37.564788,127.008953
1333,서울특별시 중구 만리동2가 만리재로 183 ,37.55449,126.966266334
1334,서울특별시 중구 황학동 마장로 109 ,37.56871414,127.0229797
1335,서울특별시 중구 필동2가 서애로 30 ,37.5601514134795,126.996883749961
1336,서울특별시 중구 장충동2가 퇴계로52길 22 ,37.562447700124295,127.003878951072
1337,서울특별시 중구 필동3가 서애로 15 ,37.5605702784504,126.998176574707
1338,서울특별시 중구 신당동 다산로31길 60 현대빌딩,37.5631727166694,127.011094093322
1339,서울특별시 중구 필동3가 서애로3길 10 ,37.5590500212535,126.997304856777
1340,서울특별시 중구 신당동 퇴계로 426 ,37.5650713336031,127.019717395304
1341,서울특별시 중구 신당동 다산로36길 109 현대아파트,37.5593,127.0208
1342,서울특별시 중구 신당동 퇴계로 356 ,37.564399488126,127.011311352251
1343,서울특별시 중구 장충동2가 동호로25길 26 청우빌라,37.5592309999999,127.001108
1344,서울특별시 중구 충무로3가 수표로 20 ,37.56392536567721,126.990175545215
1345,서울특별시 중구 광희동2가 퇴계로 326 ,37.56309509,127.0087585
1346,서울특별시 중구 신당동 청구로 116 부흥빌딩,37.5621245233203,127.010930478572
1347,서울특별시 중구 묵정동 동호로27길 19 ,37.5607042296955,127.001338899135
1348,서울특별시 중구 남산동1가 소공로6길 20 ,37.558545,126.984419524668
1349,서울특별시 중구 순화동 통일로 40 ,37.559492281092,126.971746087074
1350,서울특별시 중구 남대문로5가 세종대로 8 ,37.5575619999999,126.973986
1351,서울특별시 중구 장충동2가 동호로30길 20 ,37.561729055060894,127.004664838314
1352,서울특별시 중구 신당동 동호로 202 반도정형외과,37.5569705143244,127.01074272393998
1353,서울특별시 중구 신당동 다산로12길 11 ,37.55543529917129,127.012252807617
1354,서울특별시 중구 남창동 퇴계로 48 ,37.558665168008105,126.978145837783
1355,서울특별시 중구 신당동 다산로20길 53 ,37.5569024722174,127.015820145606
1356,서울특별시 중구 남산동2가 소파로 91 ,37.5576466793865,126.98585987091002
1357,서울특별시 중구 장충동2가 동호로25가길 15 장충동빌리지,37.5585822435678,127.001473009585
1358,서울특별시 중구 신당동 다산로32길 13 ,37.5616695220229,127.015916705131
1359,서울특별시 중구 남창동 퇴계로 39 ,37.5584376571436,126.97616636753
1360,서울특별시 중구 신당동 다산로 223 신당빌딩,37.5634214743862,127.015149593353
1361,서울특별시 중구 중림동 중림로 10 중림동 삼성 사이버 빌리지,37.558154862297,126.964270770549
1362,서울특별시 중구 만리동1가 손기정로 101 손기정공원,37.556724,126.966318
1363,서울특별시 중구 명동1가 명동길 31 ,37.5636170781614,126.984489262104
1364,서울특별시 중구 신당동 청구로 64 청구 e편한세상,37.5607425014355,127.015956938266
1365,서울특별시 중구 신당동 다산로8길 38 ,37.551484,127.011206
1366,서울특별시 중구 을지로5가 을지로 207 ,37.5679074752605,127.001086771488
1367,서울특별시 중구 충무로2가 퇴계로 121 가로판매대16,37.5606569999999,126.985543370246
1368,서울특별시 중구 남산동2가 퇴계로20가길 8 ,37.55930942397711,126.986044943332
1369,서울특별시 중구 신당동 다산로38길 31 ,37.5622861118975,127.017504572868
1370,서울특별시 중구 신당동 동호로11마길 32 푸른마을,37.550727,127.005779
1371,서울특별시 중구 충무로1가 명동8길 54 구두수선대257,37.5616099889371,126.985747218132
1372,서울특별시 중구 신당동 다산로 83 ,37.5521542555005,127.008969783782
1373,서울특별시 중구 황학동 마장로 110 ,37.567407862939206,127.022278904914
1374,서울특별시 중구 명동1가 명동3길 2 조훈빌딩,37.563684,126.983478
1375,서울특별시 중구 남대문로5가 퇴계로 4 가로판매대8,37.5562359999999,126.973279
1376,서울특별시 중구 회현동1가 남대문시장10길 2 MESA,37.5605959999999,126.979594230651
1377,서울특별시 중구 만리동2가 손기정로 101 손기정공원,37.5557579999999,126.964083
1378,서울특별시 중구 신당동 동호로5길 189 남산실버복지센터,37.546373,127.008657
1379,서울특별시 중구 신당동 다산로20길 15 써니빌 2,37.5573447448024,127.013406157492
1380,서울특별시 중구 신당동 다산로44길 95 ,37.5644228752538,127.022061645984
1381,서울특별시 중구 남대문로5가 세종대로 2 서울역 1호선,37.556392,126.972033083438
1382,서울특별시 중구 수표동 수표로 72 ,37.56722289923,126.990835368633
1383,서울특별시 중구 장충동1가 장충단로 170 ,37.560492,127.005442
1384,서울특별시 중구 중림동 중림로8길 27 ,37.557506343746,126.965985
1385,서울특별시 중구 남대문로5가 퇴계로 25 한화생명빌딩,37.55708958786221,126.975780129432
1386,서울특별시 중구 남대문로5가 세종대로 8 ,37.5578399999999,126.973515
1387,서울특별시 중구 을지로4가 을지로33길 2 방약국,37.5678079999999,127.000153
1388,서울특별시 중구 신당동 다산로21길 27 태원팰리스2차,37.5584886876783,127.010077536106
1389,서울특별시 중구 신당동 동호로15가길 14 ,37.5553417393307,127.007824480533
1390,서울특별시 중구 신당동 다산로 61 해강약국,37.550589170176,127.007242441177
1391,서울특별시 중구 장충동2가 동호로 288 상지빌딩,37.56065957930711,127.003675103187
1392,서울특별시 중구 신당동 다산로28가길 24 ,37.558354732450105,127.015766501426
1393,서울특별시 중구 회현동1가 소공로3길 10 ,37.5576126586493,126.982485651969
1394,서울특별시 중구 신당동 청구로 47 ,37.558473803776,127.016651630401
1395,서울특별시 중구 남창동 퇴계로 48 ,37.5581859999999,126.978092193603
1396,서울특별시 중구 신당동 다산로38길 45 ,37.562511484854,127.018266320227
1397,서울특별시 중구 중림동 서소문로2길 6 ,37.5583419747969,126.962787508964
1398,서울특별시 중구 회현동1가 소공로3길 45 ,37.556899,126.981594
1399,서울특별시 서대문구 합동 서소문로 53 ,37.561349,126.967843
1400,서울특별시 중구 을지로3가 충무로 68 ,37.567484399512296,126.99345588683998
1401,서울특별시 중구 명동1가 명동길 31 ,37.5638148075424,126.984902322292
1402,서울특별시 중구 중림동 청파로 429 ,37.558449,126.968594491481
1403,서울특별시 중구 신당동 동호로20길 34 ,37.560249219724,127.010367214678
1404,서울특별시 중구 신당동 다산로33가길 11 ,37.5631408245944,127.014363706111
1405,서울특별시 중구 남창동 퇴계로 43 ,37.5586247689333,126.9772
1406,중림로4길46 중림로4길46중간,37.5569029999999,126.96455
1407,서울특별시 중구 신당동 난계로 125 신당동 K47빌딩,37.5632896541612,127.023912370204
1408,정동길 22 (정동) 창덕여중 쪽문 삼거리,37.5663150821816,126.969192624092
1409,서울특별시 중구 신당동 동호로15길 42 창원하이츠,37.5540467740171,127.008304595947
1410,서울특별시 중구 흥인동 다산로 257 이동우외과,37.5667317864628,127.015688717364
1411,서울특별시 중구 회현동1가 소공로3길 45 ,37.5561263625382,126.981109678745
1412,서울특별시 중구 정동 덕수궁길 140 덕수초등학교,37.5686770842794,126.974176168441
1413,서울특별시 중구 신당동 퇴계로 454 ,37.565843097986495,127.022954821586
1414,서울특별시 종로구 신문로1가 새문안로 92 광화문오피시아빌딩,37.5692099999999,126.974368
1415,서울특별시 중구 태평로2가 세종대로 66 ,37.5626858295037,126.976637999999
1416,서울특별시 중구 신당동 왕십리로 397 ,37.5640805720128,127.025846242904
1417,서울특별시 중구 장충동1가 장충단로4길 37 ,37.5604703464124,127.008202672004
1418,서울특별시 중구 황학동 난계로15길 36 ,37.5695381015192,127.021020948886
1419,서울특별시 중구 신당동 다산로42길 43 ,37.5642060125136,127.019245326519
1420,서울특별시 중구 황학동 청계천로 370 롯데캐슬베네치아,37.570203522839,127.018242180347
1421,서울특별시 중구 신당동 동호로 193 ,37.5541254507126,127.009484767912
1422,서울특별시 중구 신당동 동호로11가길 30 ,37.5525370159314,127.007733285426
1423,서울특별시 중구 신당동 다산로 94 대한성공회 약수동교회,37.5525859240671,127.009219229221
1424,서울특별시 중구 중림동 청파로 453 ,37.559634,126.967315077781
1425,서울특별시 중구 흥인동 마장로 58 동대문솔하임,37.5671782527485,127.016884982585
1426,서울특별시 중구 중림동 만리재로37길 42 미디어센터,37.5570279248038,126.966485
1427,서울특별시 중구 신당동 다산로24가길 3 ,37.557901834419,127.015503644943
1428,서울특별시 중구 황학동 난계로11길 31 ,37.5663682333675,127.021098732948
1429,서울특별시 중구 무교동 남대문로9길 52 ,37.5661679999999,126.979257
1430,서울특별시 중구 만리동1가 만리재로 197 ,37.555812,126.967584
1431,서울특별시 중구 남산동2가 소공로6길 32 ,37.558454667325705,126.985438764094
1432,서울특별시 중구 신당동 동호로 202 반도정형외과,37.5565367448277,127.010318934917
1433,서울특별시 중구 황학동 난계로17길 30 중앙연립,37.5701567522055,127.02172905206498
1434,서울특별시 중구 회현동3가 퇴계로 114 ,37.560163,126.984234452246
1435,서울특별시 중구 신당동 동호로15가길 25 ,37.554935603206,127.007977366446
1436,소파로 46 (회현동1가) 백범광장,37.554576245313,126.980570554733
1437,서울특별시 중구 신당동 동호로11마길 32 푸른마을,37.5502638154321,127.005466818809
1438,서울특별시 중구 서소문동 서소문로 107 가로판매대106,37.562015,126.973097999999
1439,서울특별시 중구 충무로2가 퇴계로 121 가로판매대16,37.5609423646476,126.985063254832
1440,서울특별시 중구 중림동 서소문로 10 신송빌라트,37.558069811005296,126.963420510292
1441,서울특별시 중구 남대문로5가 소월로 8 제분빌딩,37.5589713497574,126.975251734256
1442,서울특별시 중구 장충동1가 동호로20길 37 ,37.55950929103339,127.009130716323
1443,서울특별시 중구 을지로7가 퇴계로 345 ,37.5643782270942,127.01033771038
1444,서울특별시 중구 신당동 동호로11가길 2 대한불교법사회,37.5530962679155,127.008492350578
1445,서울특별시 중구 신당동 다산로 137 ,37.5565261131906,127.011217474937
1446,서울특별시 중구 장충동1가 장충단로6가길 42 ,37.5615653390918,127.009677886962
1447,서울특별시 중구 신당동 다산로36길 65 ,37.5615738438263,127.018741071224
1448,서울특별시 중구 광희동1가 마른내로 161 ,37.5644675233867,127.00612
1449,서울특별시 중구 신당동 다산로 212 ,37.5627857585702,127.015967667102
1450,서울특별시 중구 수표동 수표로 65 강남빌딩,37.5679308612871,126.989499628543
1451,서울특별시 중구 충무로5가 퇴계로 265 충무창업큐브,37.5628409999999,127.001133
1452,서울특별시 중구 신당동 청구로 65 ,37.5592413840059,127.014229595661
1453,서울특별시 중구 남산동2가 퇴계로 130 프린스호텔,37.5603193849944,126.986476778984
1454,서울특별시 중구 회현동1가 소공로6가길 23 ,37.557842298323,126.98444366455
1455,서울특별시 중구 신당동 다산로21길 8 남정빌딩,37.5581718725437,127.01118260622
1456,서울특별시 중구 신당동 퇴계로 418 ,37.5650670814356,127.018818855285
1457,서울특별시 중구 묵정동 동호로27길 42 ,37.5610295388594,127.001808285713
1458,서울특별시 중구 서소문동 서소문로 107 가로판매대106,37.5629289999999,126.973087
1459,서울특별시 중구 신당동 동호로11바길 52 목산빌라,37.55071038040371,127.004962563514
1460,서울특별시 중구 신당동 다산로36가길 57 ,37.5628516691577,127.021594941616
1461,서울특별시 중구 신당동 동호로11바길 33 타워빌라,37.5490793420474,127.005753815174
1462,서울특별시 중구 황학동 다산로46길 35 ,37.5679118,127.018120999999
1463,서울특별시 중구 회현동1가 퇴계로10길 20 ,37.557586,126.979395747184
1464,서울특별시 성동구 금호동3가 매봉18길 11 주민소통공간산책,37.550378,127.013653
1465,손기정로 101 (만리동2가) 손기정 공원 정문,37.554934,126.964721999999
1466,서울특별시 중구 신당동 다산로20길 53 ,37.5569960300986,127.015535831451
1467,매봉18길 79 (금호동2가) 응봉근린공원 도로변 화장실,37.554533717637,127.016989588737
1468,서울특별시 중구 신당동 다산로25길 17 ,37.5594114838175,127.011767327784
1469,서울특별시 중구 신당동 동호로 161 ,37.5525072457461,127.011592984199
1470,서울특별시 중구 만리동2가 손기정로 101 손기정공원,37.5553159999999,126.964395
1471,서울특별시 중구 중림동 중림로7길 2 ,37.5584119999999,126.967392
1472,서울특별시 중구 을지로5가 을지로 205 ,37.5662069999999,127.001493
1473,서울특별시 중구 만리동2가 손기정로 73 봉래초등학교,37.5557099999999,126.963465
1474,서울특별시 중구 무교동 무교로 23 구두수선대155,37.56888117815471,126.979432
1475,서울특별시 중구 황학동 마장로 101 연풍주차장,37.56891519374629,127.021849751472
1476,서울특별시 중구 입정동 을지로15길 16 ,37.5678394431416,126.994314193725
1477,서울특별시 중구 회현동1가 소공로6가길 23 ,37.5578969999999,126.984099
1478,서울특별시 중구 중림동 중림로 36 중림파출소,37.557538,126.96714
1479,서울특별시 중구 봉래동2가 통일로 1 서울역(본옥),37.555669,126.971999999999
1480,서울특별시 중구 신당동 동호로15길 42 창원하이츠,37.554295562203,127.008006870746
1481,서울특별시 중구 신당동 동호로15가길 25 ,37.5547803778199,127.007143199442
1482,서울특별시 중구 중림동 서소문로 18 에이원빌딩,37.559055,126.964999
1483,서울특별시 중구 신당동 동호로11라길 15 ,37.55108889528471,127.005890607833
1484,서울특별시 마포구 아현동 환일길 67 청보파크빌,37.5523,126.962293982505
1485,서울특별시 중구 신당동 동호로 165 ,37.5533365536006,127.011153101921
1486,서울특별시 중구 신당동 퇴계로 446 ,37.565064955351794,127.021275758743
1487,서울특별시 중구 을지로3가 을지로16길 5 ,37.5657410469564,126.994153261184
1488,서울특별시 중구 남산동2가 퇴계로20가길 8 ,37.559586,126.986386
1489,서울특별시 중구 장충동1가 장충단로4길 24 선라이즈 빌,37.5602981227982,127.007202208042
1490,서울특별시 중구 신당동 청구로 116 부흥빌딩,37.5620819999999,127.010274
1491,서울특별시 중구 충무로5가 퇴계로 265 충무창업큐브,37.562797,127.001098
1492,서울특별시 중구 남창동 퇴계로 63 삼부빌딩,37.5597771970976,126.979993879795
1493,서울특별시 중구 신당동 퇴계로88가길 8 신당5동 어린이집,37.5625348725747,127.020615935325
1494,서울특별시 중구 신당동 다산로33나길 9 ,37.5633576904355,127.013178169727
1495,서울특별시 중구 신당동 동호로11나길 43 한서빌라,37.552256325141,127.005740404129
1496,서울특별시 중구 신당동 퇴계로 418 ,37.5657155341772,127.018566727638
1497,서울특별시 종로구 장사동 청계천로 149 제일은행,37.5683858243428,126.994593143463
1498,서울특별시 중구 을지로3가 충무로 45 ,37.5658090809921,126.992002129554
1499,서울특별시 중구 봉래동2가 칠패로 10 ,37.559098925114895,126.969098746776
1500,서울특별시 중구 다동 남대문로9길 24 패스트파이브타워,37.567981,126.981364488601
1501,서울특별시 중구 중림동 서소문로 10 ,37.5591239999999,126.963797
1502,서울특별시 중구 충무로5가 서애로 2 ,37.5611698678641,126.998012959956
1503,서울특별시 중구 순화동 통일로 86 바비엥3,37.5639678879932,126.969511806963
1504,서울특별시 중구 장충동2가 동호로25가길 45 영웅타운,37.5595560683521,127.000794410705
1505,서울특별시 중구 신당동 동호로15길 83 장충그린빌라,37.5538979259874,127.007545530795
1506,서울특별시 중구 남대문로4가 세종대로 40 숭례문(남대문),37.5596645065689,126.975925
1507,서울특별시 중구 회현동1가 소파로 41 ,37.55571810433911,126.981015801429
1508,서울특별시 중구 만리동2가 손기정로 101 손기정공원,37.555239,126.964572
1509,필동로 96 (장충동2가) 중구실버타운 부근노상,37.553381208377,126.997066140174
1510,서울특별시 중구 회현동1가 퇴계로12가길 23 회현어린이집,37.5562475637604,126.980323791503
1511,서울특별시 중구 신당동 동호로11나길 78 ,37.553810743432,127.004471719264
1512,서울특별시 중구 신당동 동호로11나길 27 ,37.5521925316321,127.006684541702
1513,서울특별시 성동구 옥수동 동호로5길 131 서울방송고등학교,37.548794,127.010394
1514,서울특별시 중구 신당동 다산로 51 백조장,37.5495493059123,127.007880806922
1515,서울특별시 중구 신당동 동호로8가길 27 에덴빌라,37.553279140277205,127.014615833759
1516,서울특별시 중구 신당동 다산로36가길 55 ,37.5619374203195,127.021444737911
1517,서울특별시 중구 장충동1가 장충단로4길 17 ,37.5618268592345,127.007231712341
1518,서울특별시 중구 북창동 남대문로 25 ,37.561861,126.978257
1519,서울특별시 중구 신당동 다산로16길 23 ,37.5567025981686,127.013027966021
1520,서울특별시 중구 충무로4가 마른내로4길 25 ,37.5639296179099,126.993919909
1521,서울특별시 중구 소공동 남대문로1길 66 구두수선대215,37.5638700866304,126.977945
1522,서울특별시 중구 무교동 남대문로9길 52 ,37.566791,126.979898
1523,서울특별시 중구 순화동 통일로 40 ,37.559958,126.971562
1524,서울특별시 중구 중림동 중림로8길 27 ,37.5571129772848,126.965584
1525,서울특별시 중구 소공동 남대문로 63 한진빌딩,37.563802050824,126.981882154941
1526,서울특별시 중구 신당동 퇴계로 381 ,37.5652648069681,127.014167904853
1527,서울특별시 중구 인현동2가 마른내로6길 6 ,37.5631928999999,126.995696
1528,서울특별시 중구 신당동 다산로 170 청구초등학교,37.5585546,127.01322377
1529,서울특별시 중구 남창동 퇴계로 38 동남빌딩,37.557515,126.97733849287
1530,서울특별시 중구 회현동1가 퇴계로 72 리더스뷰남산,37.5590181274138,126.980205774307
1531,서울특별시 중구 남창동 퇴계로 57 ,37.5591393239324,126.978693008422
1532,서울특별시 중구 남창동 남대문로 26 ,37.5609147240226,126.978167295454
1533,서울특별시 중구 만리동2가 만리재로21길 8 ,37.5526849999999,126.963348
1534,서울특별시 중구 남창동 남대문로 26 ,37.560444831828,126.978625953197
1535,서울특별시 중구 무학동 다산로 233 화성주유소,37.5642761740574,127.015436589717
1536,서울특별시 중구 황학동 마장로 81 ,37.56835393449951,127.019666433334
1537,서울특별시 중구 황학동 난계로15길 70 ,37.5695402274754,127.019620835781
1538,서울특별시 중구 신당동 마장로 30 Team204,37.5671910088888,127.013811171054
1539,서울특별시 중구 정동 정동길 18 국토발전전시관,37.566707,126.9709
1540,서울특별시 중구 산림동 을지로 153 ,37.5671272281657,126.995153725147
1541,서울특별시 중구 명동1가 명동11길 14 ,37.5647970683016,126.986425999999
1542,서울특별시 중구 신당동 동호로17가길 18 ,37.555235421187206,127.006735503673
1543,서울특별시 중구 서소문동 서소문로 116 유원빌딩,37.5622414624573,126.974648237228
1544,서울특별시 중구 남산동2가 퇴계로20길 53 ,37.5576289999999,126.986662999999
1545,서울특별시 중구 신당동 마장로1가길 2 가로판매대240,37.5689300755626,127.012124061584
1546,서울특별시 중구 회현동2가 소공로 30 회현119안전센터,37.5582037667456,126.983673870563
1547,서울특별시 중구 다동 남대문로9길 40 센터플레이스(Center Place),37.5678054270588,126.980924606323
1548,서울특별시 종로구 세종로 세종대로 152 일민미술관,37.569,126.977414999999
1549,서울특별시 중구 저동1가 삼일대로 336 가로판매대39,37.564762,126.987388730049
1550,서울특별시 중구 신당동 다산로 195 ,37.5619416726655,127.013175487518
1551,서울특별시 중구 신당동 청계천로 334 청평화시장,37.5693021200065,127.014157176016
1552,서울특별시 중구 신당동 다산로 128 ,37.55501428,127.01199532
1553,서울특별시 중구 을지로4가 창경궁로5길 19 ,37.5679670033137,126.996473371982
1554,서울특별시 중구 황학동 퇴계로 423 ,37.5667339124989,127.018547952175
1555,서울특별시 중구 남창동 남대문로 30 good&good상동교회,37.5613782346866,126.979125
1556,서울특별시 중구 충무로2가 삼일대로 298 ,37.5611932560059,126.989368200302
1557,서울특별시 중구 남창동 퇴계로 39 ,37.55894,126.976477
1558,서울특별시 중구 다동 남대문로9길 10 ,37.5666701313843,126.981552243232
1559,매봉18길 11 (금호동3가) 응봉공원,37.544995,127.00817
1560,서울특별시 중구 회현동2가 소공로 30 회현119안전센터,37.558635400271,126.983089
1561,서울특별시 중구 신당동 퇴계로 446 ,37.56563899578671,127.02142059803002
1562,서울특별시 중구 회현동3가 퇴계로14길 19 ,37.55970703131671,126.984601914882
1563,서울특별시 중구 신당동 동호로8길 42 ,37.5523307508323,127.013588547705
1564,서울특별시 중구 신당동 동호로 166 ,37.5536151139121,127.012644410133
